[
{"location": "Mont Saint Michel", "date_updated": "2022-01-02", "hotel_name": "La Vieille Auberge", "hotel_lat": 48.636063, "hotel_lon": -1.511457, "hotel_score": "7.4", "score_title": "Bien\u00a0 ", "score_expe": "1", "url": "https://www.booking.com/hotel/fr/la-vieille-auberge-le-mont-saint-michel.fr.html"},
{"location": "St Malo", "date_updated": "2022-01-02", "hotel_name": "Hotel Ambassadeurs", "hotel_lat": 48.65473054, "hotel_lon": -2.00773448, "hotel_score": "8.5", "score_title": "Tr\u00e8s bien ", "score_expe": "1", "url": "https://www.booking.com/hotel/fr/ambassadeurs.fr.html"},
{"location": "Bayeux", "date_updated": "2022-01-02", "hotel_name": "Relais Des 3 Pommes", "hotel_lat": 49.28407529, "hotel_lon": -0.68937063, "hotel_score": "7.4", "score_title": "Bien\u00a0 ", "score_expe": "314", "url": "https://www.booking.com/hotel/fr/le-relais-des-3-pommes.fr.html"},
{"location": "Le Havre", "date_updated": "2022-01-02", "hotel_name": "Zenitude H\u00f4tel-R\u00e9sidences Le Havre", "hotel_lat": 49.50008887, "hotel_lon": 0.14129341, "hotel_score": "6.7", "score_title": "Agr\u00e9able ", "score_expe": "759", "url": "https://www.booking.com/hotel/fr/appart-city-cap-affaires-le-havre.fr.html"},
{"location": "Rouen", "date_updated": "2022-01-02", "hotel_name": "H\u00f4tel 1Er Consul Rouen", "hotel_lat": 49.44358481, "hotel_lon": 1.09777585, "hotel_score": "7.9", "score_title": "Bien\u00a0 ", "score_expe": "685", "url": "https://www.booking.com/hotel/fr/brit-versan.fr.html"},
{"location": "Paris", "date_updated": "2022-01-02", "hotel_name": "H\u00f4tel Alfred Sommier", "hotel_lat": 48.872005, "hotel_lon": 2.324035, "hotel_score": "8.8", "score_title": "Superbe ", "score_expe": "1", "url": "https://www.booking.com/hotel/fr/alfred-sommier.fr.html"},
{"location": "Paris", "date_updated": "2022-01-02", "hotel_name": "Le Pavillon De La Reine & Spa - Small Luxury Hotels Of The World", "hotel_lat": 48.85646399, "hotel_lon": 2.36613013, "hotel_score": "9.1", "score_title": "Fabuleux\u00a0 ", "score_expe": "387", "url": "https://www.booking.com/hotel/fr/le-pavillon-de-la-reine.fr.html"},
{"location": "Paris", "date_updated": "2022-01-02", "hotel_name": "Hotel De Nell", "hotel_lat": 48.87314686, "hotel_lon": 2.3468256, "hotel_score": "8.9", "score_title": "Superbe ", "score_expe": "322", "url": "https://www.booking.com/hotel/fr/de-nell.fr.html"},
{"location": "Paris", "date_updated": "2022-01-02", "hotel_name": "Grand Powers Hotel", "hotel_lat": 48.869223, "hotel_lon": 2.30313, "hotel_score": "9.3", "score_title": "Fabuleux\u00a0 ", "score_expe": "537", "url": "https://www.booking.com/hotel/fr/grand-powers.fr.html"},
{"location": "Paris", "date_updated": "2022-01-02", "hotel_name": "H\u00f4tel D'Aubusson", "hotel_lat": 48.8548028, "hotel_lon": 2.33947769, "hotel_score": "9.3", "score_title": "Fabuleux\u00a0 ", "score_expe": "761", "url": "https://www.booking.com/hotel/fr/d-aubusson.fr.html"},
{"location": "Paris", "date_updated": "2022-01-02", "hotel_name": "Monsieur George Hotel & Spa - Champs-Elys\u00e9es", "hotel_lat": 48.872938, "hotel_lon": 2.302577, "hotel_score": "9.0", "score_title": "Fabuleux\u00a0 ", "score_expe": "266", "url": "https://www.booking.com/hotel/fr/monsieur-george-amp-spa-champs-elysees.fr.html"},
{"location": "Paris", "date_updated": "2022-01-02", "hotel_name": "Hotel Les Bains Paris", "hotel_lat": 48.86395174, "hotel_lon": 2.35197745, "hotel_score": "8.9", "score_title": "Superbe ", "score_expe": "346", "url": "https://www.booking.com/hotel/fr/les-bains-paris.fr.html"},
{"location": "Paris", "date_updated": "2022-01-02", "hotel_name": "H\u00f4tel Du Louvre, In The Unbound Collection By Hyatt", "hotel_lat": 48.8630032, "hotel_lon": 2.33565956, "hotel_score": "8.7", "score_title": "Superbe ", "score_expe": "624", "url": "https://www.booking.com/hotel/fr/du-louvre.fr.html"},
{"location": "Paris", "date_updated": "2022-01-02", "hotel_name": "H\u00f4tel Paris Bastille Boutet - Mgallery", "hotel_lat": 48.85196856, "hotel_lon": 2.38377128, "hotel_score": "8.3", "score_title": "Tr\u00e8s bien ", "score_expe": "334", "url": "https://www.booking.com/hotel/fr/paris-bastille-boutet.fr.html"},
{"location": "Paris", "date_updated": "2022-01-02", "hotel_name": "Maison Souquet", "hotel_lat": 48.88364113, "hotel_lon": 2.33143075, "hotel_score": "9.3", "score_title": "Fabuleux\u00a0 ", "score_expe": "273", "url": "https://www.booking.com/hotel/fr/maison-souquet.fr.html"},
{"location": "Paris", "date_updated": "2022-01-02", "hotel_name": "Hyatt Paris Madeleine", "hotel_lat": 48.8729012, "hotel_lon": 2.32170939, "hotel_score": "8.2", "score_title": "Tr\u00e8s bien ", "score_expe": "356", "url": "https://www.booking.com/hotel/fr/hyatt-paris-madeleine.fr.html"},
{"location": "Paris", "date_updated": "2022-01-02", "hotel_name": "Fauchon L'H\u00f4tel Paris", "hotel_lat": 48.87044449, "hotel_lon": 2.32337801, "hotel_score": "9.4", "score_title": "Fabuleux\u00a0 ", "score_expe": "638", "url": "https://www.booking.com/hotel/fr/fauchon-l-39.fr.html"},
{"location": "Paris", "date_updated": "2022-01-02", "hotel_name": "La Clef Louvre Paris By The Crest Collection", "hotel_lat": 48.86400289, "hotel_lon": 2.33602926, "hotel_score": "8.6", "score_title": "Superbe ", "score_expe": "802", "url": "https://www.booking.com/hotel/fr/citadines-aparthotel-louvre.fr.html"},
{"location": "Paris", "date_updated": "2022-01-02", "hotel_name": "Radisson Blu Champs-Elys\u00e9es, Paris", "hotel_lat": 48.8719697, "hotel_lon": 2.29686677, "hotel_score": "7.1", "score_title": "Bien\u00a0 ", "score_expe": "437", "url": "https://www.booking.com/hotel/fr/champselysees.fr.html"},
{"location": "Paris", "date_updated": "2022-01-02", "hotel_name": "Hotel Du Collectionneur Arc De Triomphe", "hotel_lat": 48.87698333, "hotel_lon": 2.3069787, "hotel_score": "7.6", "score_title": "Bien\u00a0 ", "score_expe": "860", "url": "https://www.booking.com/hotel/fr/collectionneur-arc-de-triomphe.fr.html"},
{"location": "Paris", "date_updated": "2022-01-02", "hotel_name": "H\u00f4tel Regina Louvre", "hotel_lat": 48.86384223, "hotel_lon": 2.3324161, "hotel_score": "9.0", "score_title": "Fabuleux\u00a0 ", "score_expe": "566", "url": "https://www.booking.com/hotel/fr/regina-paris.fr.html"},
{"location": "Paris", "date_updated": "2022-01-02", "hotel_name": "Molitor Paris - Mgallery", "hotel_lat": 48.84528073, "hotel_lon": 2.2554642, "hotel_score": "8.5", "score_title": "Tr\u00e8s bien ", "score_expe": "734", "url": "https://www.booking.com/hotel/fr/mgallery-molitor.fr.html"},
{"location": "Paris", "date_updated": "2022-01-02", "hotel_name": "Maison Albar Hotels Le Pont-Neuf", "hotel_lat": 48.86060246, "hotel_lon": 2.34420372, "hotel_score": "9.1", "score_title": "Fabuleux\u00a0 ", "score_expe": "918", "url": "https://www.booking.com/hotel/fr/maison-albar-paris-celine.fr.html"},
{"location": "Paris", "date_updated": "2022-01-02", "hotel_name": "Renaissance Paris Arc De Triomphe Hotel", "hotel_lat": 48.87699832, "hotel_lon": 2.29714841, "hotel_score": "8.6", "score_title": "Superbe ", "score_expe": "268", "url": "https://www.booking.com/hotel/fr/renaissance-paris-arc-de-triomphe.fr.html"},
{"location": "Paris", "date_updated": "2022-01-02", "hotel_name": "Sofitel Paris Le Faubourg", "hotel_lat": 48.86784835, "hotel_lon": 2.32113272, "hotel_score": "8.3", "score_title": "Tr\u00e8s bien ", "score_expe": "493", "url": "https://www.booking.com/hotel/fr/sofitel-le-faubourg.fr.html"},
{"location": "Paris", "date_updated": "2022-01-02", "hotel_name": "La Demeure Montaigne", "hotel_lat": 48.867792, "hotel_lon": 2.303308, "hotel_score": "9.3", "score_title": "Fabuleux\u00a0 ", "score_expe": "30", "url": "https://www.booking.com/hotel/fr/la-demeure-montaigne.fr.html"},
{"location": "Paris", "date_updated": "2022-01-02", "hotel_name": "Sofitel Paris Arc De Triomphe", "hotel_lat": 48.87493525, "hotel_lon": 2.3014091, "hotel_score": "8.7", "score_title": "Superbe ", "score_expe": "446", "url": "https://www.booking.com/hotel/fr/sofitel-arc-de-triomphe.fr.html"},
{"location": "Paris", "date_updated": "2022-01-02", "hotel_name": "Maison Br\u00e9guet", "hotel_lat": 48.8564812, "hotel_lon": 2.3720072, "hotel_score": "8.6", "score_title": "Superbe ", "score_expe": "635", "url": "https://www.booking.com/hotel/fr/maison-breguet-paris.fr.html"},
{"location": "Paris", "date_updated": "2022-01-02", "hotel_name": "Intercontinental Paris Le Grand, An Ihg Hotel", "hotel_lat": 48.87062271, "hotel_lon": 2.32988074, "hotel_score": "8.6", "score_title": "Superbe ", "score_expe": "809", "url": "https://www.booking.com/hotel/fr/intercontinental-paris-le-grand.fr.html"},
{"location": "Paris", "date_updated": "2022-01-02", "hotel_name": "H\u00f4tel Balzac", "hotel_lat": 48.87325579, "hotel_lon": 2.30035499, "hotel_score": "7.6", "score_title": "Bien\u00a0 ", "score_expe": "244", "url": "https://www.booking.com/hotel/fr/balzac.fr.html"},
{"location": "Rouen", "date_updated": "2022-01-02", "hotel_name": "Le Vieux Carr\u00e9", "hotel_lat": 49.44332714, "hotel_lon": 1.09457396, "hotel_score": "8.2", "score_title": "Tr\u00e8s bien ", "score_expe": "1", "url": "https://www.booking.com/hotel/fr/le-vieux-carre.fr.html"},
{"location": "Rouen", "date_updated": "2022-01-02", "hotel_name": "Les Initi\u00e9s", "hotel_lat": 49.44197641, "hotel_lon": 1.09243892, "hotel_score": "8.3", "score_title": "Tr\u00e8s bien ", "score_expe": "1", "url": "https://www.booking.com/hotel/fr/les-inities-rouen.fr.html"},
{"location": "Rouen", "date_updated": "2022-01-02", "hotel_name": "Brit Hotel Confort Rouen Centre", "hotel_lat": 49.43869536, "hotel_lon": 1.1092034, "hotel_score": "7.5", "score_title": "Bien\u00a0 ", "score_expe": "1", "url": "https://www.booking.com/hotel/fr/le-relais-des-2-rivieres.fr.html"},
{"location": "Rouen", "date_updated": "2022-01-02", "hotel_name": "Urban Style De L'Europe", "hotel_lat": 49.44115235, "hotel_lon": 1.08923636, "hotel_score": "7.9", "score_title": "Bien\u00a0 ", "score_expe": "237", "url": "https://www.booking.com/hotel/fr/de-l-europe-rouen.fr.html"},
{"location": "Rouen", "date_updated": "2022-01-02", "hotel_name": "Ibis Rouen Centre Rive Gauche St Sever", "hotel_lat": 49.4317818, "hotel_lon": 1.0824082, "hotel_score": "7.7", "score_title": "Bien\u00a0 ", "score_expe": "635", "url": "https://www.booking.com/hotel/fr/ibis-rouen-centre-rive-gauche-st-sever.fr.html"},
{"location": "Rouen", "date_updated": "2022-01-02", "hotel_name": "Kyriad Rouen Centre", "hotel_lat": 49.44158357, "hotel_lon": 1.08144455, "hotel_score": "6.9", "score_title": "Agr\u00e9able ", "score_expe": "1", "url": "https://www.booking.com/hotel/fr/rouencentre.fr.html"},
{"location": "Rouen", "date_updated": "2022-01-02", "hotel_name": "Ibis Styles Rouen Centre Rive Gauche", "hotel_lat": 49.42498666, "hotel_lon": 1.06860875, "hotel_score": "8.5", "score_title": "Tr\u00e8s bien ", "score_expe": "312", "url": "https://www.booking.com/hotel/fr/ibis-styles-rouen-centre-rive-gauche.fr.html"},
{"location": "Rouen", "date_updated": "2022-01-02", "hotel_name": "Ibis Rouen Centre Rive Droite", "hotel_lat": 49.44318544, "hotel_lon": 1.07911371, "hotel_score": "7.5", "score_title": "Bien\u00a0 ", "score_expe": "912", "url": "https://www.booking.com/hotel/fr/ibis-rouen-centre-rive-droite.fr.html"},
{"location": "Rouen", "date_updated": "2022-01-02", "hotel_name": "Campanile Rouen Mermoz", "hotel_lat": 49.43443341, "hotel_lon": 1.07183611, "hotel_score": "8.2", "score_title": "Tr\u00e8s bien ", "score_expe": "2", "url": "https://www.booking.com/hotel/fr/campanile-rouen-mermoz.fr.html"},
{"location": "Rouen", "date_updated": "2022-01-02", "hotel_name": "Ibis Rouen Centre Champ De Mars", "hotel_lat": 49.43572312, "hotel_lon": 1.10273123, "hotel_score": "8.2", "score_title": "Tr\u00e8s bien ", "score_expe": "2", "url": "https://www.booking.com/hotel/fr/ibis-rouen-champ-de-mars.fr.html"},
{"location": "Rouen", "date_updated": "2022-01-02", "hotel_name": "Hotel Dandy Rouen Centre", "hotel_lat": 49.44527729, "hotel_lon": 1.0867627, "hotel_score": "7.8", "score_title": "Bien\u00a0 ", "score_expe": "752", "url": "https://www.booking.com/hotel/fr/dandy.fr.html"},
{"location": "Rouen", "date_updated": "2022-01-02", "hotel_name": "B&B H\u00f4tel Rouen Centre St Sever", "hotel_lat": 49.43032628, "hotel_lon": 1.08483285, "hotel_score": "6.7", "score_title": "Agr\u00e9able ", "score_expe": "1", "url": "https://www.booking.com/hotel/fr/comforthotelrouencentre.fr.html"},
{"location": "Rouen", "date_updated": "2022-01-02", "hotel_name": "The Originals City, H\u00f4tel Notre Dame, Rouen", "hotel_lat": 49.4385349, "hotel_lon": 1.09345078, "hotel_score": "7.4", "score_title": "Bien\u00a0 ", "score_expe": "385", "url": "https://www.booking.com/hotel/fr/hotel-notre-dame.fr.html"},
{"location": "Rouen", "date_updated": "2022-01-02", "hotel_name": "H\u00f4tel De La Cath\u00e9drale", "hotel_lat": 49.44011681, "hotel_lon": 1.09693363, "hotel_score": "7.9", "score_title": "Bien\u00a0 ", "score_expe": "1", "url": "https://www.booking.com/hotel/fr/de-la-cathedrale.fr.html"},
{"location": "Rouen", "date_updated": "2022-01-02", "hotel_name": "Ibis Styles Rouen Centre Cath\u00e9drale", "hotel_lat": 49.437454, "hotel_lon": 1.096183, "hotel_score": "7.4", "score_title": "Bien\u00a0 ", "score_expe": "788", "url": "https://www.booking.com/hotel/fr/ibis-styles-rouen-centre-cathedrale.fr.html"},
{"location": "Rouen", "date_updated": "2022-01-02", "hotel_name": "Holiday Inn Express - Rouen Centre - Rive Gauche, An Ihg Hotel", "hotel_lat": 49.429988, "hotel_lon": 1.072398, "hotel_score": "8.5", "score_title": "Tr\u00e8s bien ", "score_expe": "2", "url": "https://www.booking.com/hotel/fr/holiday-inn-express-rouen-centre-rive-gauche.fr.html"},
{"location": "Rouen", "date_updated": "2022-01-02", "hotel_name": "R\u00e9sidence Services Seniors Les Bor\u00e9ales", "hotel_lat": 49.4254701, "hotel_lon": 1.0838855, "hotel_score": "9.0", "score_title": "Fabuleux\u00a0 ", "score_expe": "15", "url": "https://www.booking.com/hotel/fr/les-boreales.fr.html"},
{"location": "Rouen", "date_updated": "2022-01-02", "hotel_name": "Mercure Rouen Centre Champ De Mars", "hotel_lat": 49.43555756, "hotel_lon": 1.10374242, "hotel_score": "7.9", "score_title": "Bien\u00a0 ", "score_expe": "780", "url": "https://www.booking.com/hotel/fr/mercure-rouen-champ-de-mars.fr.html"},
{"location": "Rouen", "date_updated": "2022-01-02", "hotel_name": "Best Western Plus Hotel De Dieppe 1880", "hotel_lat": 49.44834821, "hotel_lon": 1.09349504, "hotel_score": "8.7", "score_title": "Superbe ", "score_expe": "404", "url": "https://www.booking.com/hotel/fr/bestwesternhoteldedieppe.fr.html"},
{"location": "Rouen", "date_updated": "2022-01-02", "hotel_name": "Novotel Suites Rouen Normandie", "hotel_lat": 49.44313922, "hotel_lon": 1.07542634, "hotel_score": "7.9", "score_title": "Bien\u00a0 ", "score_expe": "1", "url": "https://www.booking.com/hotel/fr/suitehotel-rouen-normandie.fr.html"},
{"location": "Rouen", "date_updated": "2022-01-02", "hotel_name": "Mercure Rouen Centre Cath\u00e9drale", "hotel_lat": 49.44117285, "hotel_lon": 1.09517545, "hotel_score": "8.2", "score_title": "Tr\u00e8s bien ", "score_expe": "1", "url": "https://www.booking.com/hotel/fr/mercure-rouen-centre.fr.html"},
{"location": "Rouen", "date_updated": "2022-01-02", "hotel_name": "Best Western Plus Hotel Litteraire Gustave Flaubert", "hotel_lat": 49.44306423, "hotel_lon": 1.08660311, "hotel_score": "8.6", "score_title": "Superbe ", "score_expe": "1", "url": "https://www.booking.com/hotel/fr/hotellitterairegustaveflaubert.fr.html"},
{"location": "Rouen", "date_updated": "2022-01-02", "hotel_name": "Radisson Blu Hotel, Rouen Centre", "hotel_lat": 49.446441, "hotel_lon": 1.09412, "hotel_score": "8.9", "score_title": "Superbe ", "score_expe": "1", "url": "https://www.booking.com/hotel/fr/radisson-blu-rouen-centre.fr.html"},
{"location": "Rouen", "date_updated": "2022-01-02", "hotel_name": "H\u00f4tel De Bourgtheroulde, Autograph Collection", "hotel_lat": 49.442178, "hotel_lon": 1.088876, "hotel_score": "8.6", "score_title": "Superbe ", "score_expe": "814", "url": "https://www.booking.com/hotel/fr/de-bourgtheroulde.fr.html"},
{"location": "Le Havre", "date_updated": "2022-01-02", "hotel_name": "H\u00f4tel Les Gens De Mer Le Havre By Popinns", "hotel_lat": 49.4899183, "hotel_lon": 0.10338306, "hotel_score": "6.5", "score_title": "Agr\u00e9able ", "score_expe": "1", "url": "https://www.booking.com/hotel/fr/les-gens-de-mer-le-havre.fr.html"},
{"location": "Le Havre", "date_updated": "2022-01-02", "hotel_name": "Oscar H\u00f4tel", "hotel_lat": 49.48981028, "hotel_lon": 0.10710865, "hotel_score": "8.0", "score_title": "Tr\u00e8s bien ", "score_expe": "527", "url": "https://www.booking.com/hotel/fr/celtic.fr.html"},
{"location": "Le Havre", "date_updated": "2022-01-02", "hotel_name": "Le Richelieu", "hotel_lat": 49.48881105, "hotel_lon": 0.10760218, "hotel_score": "7.4", "score_title": "Bien\u00a0 ", "score_expe": "941", "url": "https://www.booking.com/hotel/fr/le-richelieu-le-havre.fr.html"},
{"location": "Le Havre", "date_updated": "2022-01-02", "hotel_name": "Premiere Classe Le Havre Centre", "hotel_lat": 49.49641693, "hotel_lon": 0.15151234, "hotel_score": "7.5", "score_title": "Bien\u00a0 ", "score_expe": "1", "url": "https://www.booking.com/hotel/fr/premiere-classe-le-havre-centre.fr.html"},
{"location": "Le Havre", "date_updated": "2022-01-02", "hotel_name": "Boutique Hotel D'Angleterre Le Havre", "hotel_lat": 49.49404915, "hotel_lon": 0.09936646, "hotel_score": "7.0", "score_title": "Bien\u00a0 ", "score_expe": "79", "url": "https://www.booking.com/hotel/fr/comfort-d-angleterre.fr.html"},
{"location": "Le Havre", "date_updated": "2022-01-02", "hotel_name": "La Petite Rade H\u00f4tel", "hotel_lat": 49.50238471, "hotel_lon": 0.08598089, "hotel_score": "7.4", "score_title": "Bien\u00a0 ", "score_expe": "474", "url": "https://www.booking.com/hotel/fr/les-voiles-sur-le-front-de-mer.fr.html"},
{"location": "Le Havre", "date_updated": "2022-01-02", "hotel_name": "Residence Hoteliere De L'Estuaire", "hotel_lat": 49.4955557, "hotel_lon": 0.116637, "hotel_score": "7.2", "score_title": "Bien\u00a0 ", "score_expe": "332", "url": "https://www.booking.com/hotel/fr/residence-hoteliere-de-l-estuaire.fr.html"},
{"location": "Le Havre", "date_updated": "2022-01-02", "hotel_name": "Ibis Styles Le Havre Centre", "hotel_lat": 49.48849655, "hotel_lon": 0.107342, "hotel_score": "6.7", "score_title": "Agr\u00e9able ", "score_expe": "204", "url": "https://www.booking.com/hotel/fr/citotel-le-marly.fr.html"},
{"location": "Le Havre", "date_updated": "2022-01-02", "hotel_name": "Best Western Arthotel", "hotel_lat": 49.49119366, "hotel_lon": 0.1064609, "hotel_score": "7.8", "score_title": "Bien\u00a0 ", "score_expe": "552", "url": "https://www.booking.com/hotel/fr/art.fr.html"},
{"location": "Le Havre", "date_updated": "2022-01-02", "hotel_name": "Aparthotel Adagio Access Le Havre Les Docks", "hotel_lat": 49.48741929, "hotel_lon": 0.13151121, "hotel_score": "8.3", "score_title": "Tr\u00e8s bien ", "score_expe": "1", "url": "https://www.booking.com/hotel/fr/adagio-access-le-havre-les-docks.fr.html"},
{"location": "Le Havre", "date_updated": "2022-01-02", "hotel_name": "Kyriad Le Havre Centre", "hotel_lat": 49.49308921, "hotel_lon": 0.13096154, "hotel_score": "6.9", "score_title": "Agr\u00e9able ", "score_expe": "1", "url": "https://www.booking.com/hotel/fr/kyriadlehavrecentre.fr.html"},
{"location": "Le Havre", "date_updated": "2022-01-02", "hotel_name": "B&B Hotel Le Havre Centre Gare", "hotel_lat": 49.493046, "hotel_lon": 0.124163, "hotel_score": "7.4", "score_title": "Bien\u00a0 ", "score_expe": "1", "url": "https://www.booking.com/hotel/fr/b-b-le-havre-centre-gare.fr.html"},
{"location": "Le Havre", "date_updated": "2022-01-02", "hotel_name": "Ibis Le Havre Centre", "hotel_lat": 49.49164142, "hotel_lon": 0.11876017, "hotel_score": "8.1", "score_title": "Tr\u00e8s bien ", "score_expe": "2", "url": "https://www.booking.com/hotel/fr/hotelibislehavre.fr.html"},
{"location": "Le Havre", "date_updated": "2022-01-02", "hotel_name": "Lh Rooms Location", "hotel_lat": 49.496706, "hotel_lon": 0.152229, "hotel_score": "7.5", "score_title": "Bien\u00a0 ", "score_expe": "69", "url": "https://www.booking.com/hotel/fr/lh-rooms-location.fr.html"},
{"location": "Le Havre", "date_updated": "2022-01-02", "hotel_name": "R\u00e9sidence La Fr\u00e9gate", "hotel_lat": 49.49342197, "hotel_lon": 0.13021991, "hotel_score": "6.8", "score_title": "Agr\u00e9able ", "score_expe": "682", "url": "https://www.booking.com/hotel/fr/residence-la-fregate.fr.html"},
{"location": "Le Havre", "date_updated": "2022-01-02", "hotel_name": "H\u00f4tel Carmin", "hotel_lat": 49.49493852, "hotel_lon": 0.10553956, "hotel_score": "8.6", "score_title": "Superbe ", "score_expe": "591", "url": "https://www.booking.com/hotel/fr/carmin.fr.html"},
{"location": "Le Havre", "date_updated": "2022-01-02", "hotel_name": "Holiday Inn Express - Le Havre Centre", "hotel_lat": 49.498238, "hotel_lon": 0.128837, "hotel_score": "8.2", "score_title": "Tr\u00e8s bien ", "score_expe": "2", "url": "https://www.booking.com/hotel/fr/campanile-le-havre-centre.fr.html"},
{"location": "Le Havre", "date_updated": "2022-01-02", "hotel_name": "Nomad Hotel Le Havre", "hotel_lat": 49.4933176, "hotel_lon": 0.12530688, "hotel_score": "8.6", "score_title": "Superbe ", "score_expe": "3", "url": "https://www.booking.com/hotel/fr/nomad-le-havre.fr.html"},
{"location": "Le Havre", "date_updated": "2022-01-02", "hotel_name": "Novotel Le Havre Centre Gare", "hotel_lat": 49.49160831, "hotel_lon": 0.12526989, "hotel_score": "7.6", "score_title": "Bien\u00a0 ", "score_expe": "705", "url": "https://www.booking.com/hotel/fr/novotellehavre.fr.html"},
{"location": "Le Havre", "date_updated": "2022-01-02", "hotel_name": "Best Western Plus Le Havre Centre Gare", "hotel_lat": 49.49334357, "hotel_lon": 0.12431771, "hotel_score": "8.7", "score_title": "Superbe ", "score_expe": "108", "url": "https://www.booking.com/hotel/fr/hotelterminuslehavre.fr.html"},
{"location": "Le Havre", "date_updated": "2022-01-02", "hotel_name": "H\u00f4tel Spa Vent D'Ouest", "hotel_lat": 49.49141928, "hotel_lon": 0.10070756, "hotel_score": "8.2", "score_title": "Tr\u00e8s bien ", "score_expe": "718", "url": "https://www.booking.com/hotel/fr/vent-d-ouest-le-havre.fr.html"},
{"location": "Le Havre", "date_updated": "2022-01-02", "hotel_name": "Mercure Le Havre Centre Bassin Du Commerce", "hotel_lat": 49.49033645, "hotel_lon": 0.11681288, "hotel_score": "7.6", "score_title": "Bien\u00a0 ", "score_expe": "1", "url": "https://www.booking.com/hotel/fr/mercure-bassin-du-commerce.fr.html"},
{"location": "Le Havre", "date_updated": "2022-01-02", "hotel_name": "Hotel Spa Le Pasino", "hotel_lat": 49.49117449, "hotel_lon": 0.11193663, "hotel_score": "8.4", "score_title": "Tr\u00e8s bien ", "score_expe": "574", "url": "https://www.booking.com/hotel/fr/pasino.fr.html"},
{"location": "Bayeux", "date_updated": "2022-01-02", "hotel_name": "H\u00f4tel Chateau De Sully", "hotel_lat": 49.29943464, "hotel_lon": -0.73136866, "hotel_score": "7.9", "score_title": "Bien\u00a0 ", "score_expe": "246", "url": "https://www.booking.com/hotel/fr/chateau-de-sully.fr.html"},
{"location": "Bayeux", "date_updated": "2022-01-02", "hotel_name": "Domitys Les Falaises Blanches", "hotel_lat": 49.27913671, "hotel_lon": -0.72042494, "hotel_score": "8.8", "score_title": "Superbe ", "score_expe": "331", "url": "https://www.booking.com/hotel/fr/domitys-les-falaises-blanches.fr.html"},
{"location": "Bayeux", "date_updated": "2022-01-02", "hotel_name": "Ch\u00e2teau Saint Gilles", "hotel_lat": 49.249366, "hotel_lon": -0.712469, "hotel_score": "9.7", "score_title": "Exceptionnel ", "score_expe": "533", "url": "https://www.booking.com/hotel/fr/chateau-saint-gilles.fr.html"},
{"location": "Bayeux", "date_updated": "2022-01-02", "hotel_name": "La Maison De Mathilde", "hotel_lat": 49.27647468, "hotel_lon": -0.70247008, "hotel_score": "9.0", "score_title": "Fabuleux\u00a0 ", "score_expe": "312", "url": "https://www.booking.com/hotel/fr/la-maison-de-mathilde.fr.html"},
{"location": "Bayeux", "date_updated": "2022-01-02", "hotel_name": "Premiere Classe Bayeux", "hotel_lat": 49.26942872, "hotel_lon": -0.70668697, "hotel_score": "7.7", "score_title": "Bien\u00a0 ", "score_expe": "2", "url": "https://www.booking.com/hotel/fr/premiere-classe-bayeux.fr.html"},
{"location": "Bayeux", "date_updated": "2022-01-02", "hotel_name": "H\u00f4tel Le Saint Patrice", "hotel_lat": 49.27981023, "hotel_lon": -0.71067492, "hotel_score": "8.4", "score_title": "Tr\u00e8s bien ", "score_expe": "521", "url": "https://www.booking.com/hotel/fr/saint-patrice.fr.html"},
{"location": "Bayeux", "date_updated": "2022-01-02", "hotel_name": "Appart\u2019H\u00f4tel Saint Patrice", "hotel_lat": 49.280242, "hotel_lon": -0.71046, "hotel_score": "8.9", "score_title": "Superbe ", "score_expe": "16", "url": "https://www.booking.com/hotel/fr/appart-saint-patrice.fr.html"},
{"location": "Bayeux", "date_updated": "2022-01-02", "hotel_name": "Hotel Reine Mathilde", "hotel_lat": 49.27603159, "hotel_lon": -0.70172489, "hotel_score": "8.7", "score_title": "Superbe ", "score_expe": "1", "url": "https://www.booking.com/hotel/fr/reine-mathilde-bayeux.fr.html"},
{"location": "Bayeux", "date_updated": "2022-01-02", "hotel_name": "Ibis Budget Bayeux", "hotel_lat": 49.25424209, "hotel_lon": -0.64648747, "hotel_score": "8.2", "score_title": "Tr\u00e8s bien ", "score_expe": "2", "url": "https://www.booking.com/hotel/fr/etap-bayeux.fr.html"},
{"location": "Bayeux", "date_updated": "2022-01-02", "hotel_name": "H\u00f4tel D'Argouges", "hotel_lat": 49.2789941, "hotel_lon": -0.708417, "hotel_score": "8.9", "score_title": "Superbe ", "score_expe": "378", "url": "https://www.booking.com/hotel/fr/d-argouges.fr.html"},
{"location": "Bayeux", "date_updated": "2022-01-02", "hotel_name": "Campanile Bayeux", "hotel_lat": 49.26999926, "hotel_lon": -0.70694983, "hotel_score": "7.5", "score_title": "Bien\u00a0 ", "score_expe": "1", "url": "https://www.booking.com/hotel/fr/campanile-bayeux.fr.html"},
{"location": "Bayeux", "date_updated": "2022-01-02", "hotel_name": "Domaine De Bayeux", "hotel_lat": 49.2723256, "hotel_lon": -0.6985101, "hotel_score": "9.4", "score_title": "Fabuleux\u00a0 ", "score_expe": "385", "url": "https://www.booking.com/hotel/fr/domaine-de-bayeux.fr.html"},
{"location": "Bayeux", "date_updated": "2022-01-02", "hotel_name": "Immolidays", "hotel_lat": 49.27905535, "hotel_lon": -0.70856206, "hotel_score": "8.4", "score_title": "Tr\u00e8s bien ", "score_expe": "189", "url": "https://www.booking.com/hotel/fr/immolidays.fr.html"},
{"location": "Bayeux", "date_updated": "2022-01-02", "hotel_name": "H\u00f4tel Le Bayeux", "hotel_lat": 49.27415914, "hotel_lon": -0.70450634, "hotel_score": "8.2", "score_title": "Tr\u00e8s bien ", "score_expe": "546", "url": "https://www.booking.com/hotel/fr/le-bayeux.fr.html"},
{"location": "Bayeux", "date_updated": "2022-01-02", "hotel_name": "Au Loup Historic Apartments", "hotel_lat": 49.272798, "hotel_lon": -0.707556, "hotel_score": "8.6", "score_title": "Superbe ", "score_expe": "616", "url": "https://www.booking.com/hotel/fr/au-loup-historic-apartments-bayeux.fr.html"},
{"location": "Bayeux", "date_updated": "2022-01-02", "hotel_name": "Churchill Hotel Bayeux Centre", "hotel_lat": 49.2766073, "hotel_lon": -0.70057154, "hotel_score": "8.2", "score_title": "Tr\u00e8s bien ", "score_expe": "484", "url": "https://www.booking.com/hotel/fr/churchill-bayeux.fr.html"},
{"location": "Bayeux", "date_updated": "2022-01-02", "hotel_name": "Hotel Le Lion D'Or Et Restaurant La Table Du Lion", "hotel_lat": 49.27627832, "hotel_lon": -0.69836944, "hotel_score": "8.6", "score_title": "Superbe ", "score_expe": "440", "url": "https://www.booking.com/hotel/fr/le-lion-d-or-bayeux.fr.html"},
{"location": "Bayeux", "date_updated": "2022-01-02", "hotel_name": "H\u00f4tel De Brunville Et La Table Du Grand Luxembourg", "hotel_lat": 49.27815769, "hotel_lon": -0.70351392, "hotel_score": "7.8", "score_title": "Bien\u00a0 ", "score_expe": "589", "url": "https://www.booking.com/hotel/fr/hoteldebrunville.fr.html"},
{"location": "Bayeux", "date_updated": "2022-01-02", "hotel_name": "Novotel Bayeux", "hotel_lat": 49.28176922, "hotel_lon": -0.71848869, "hotel_score": "7.8", "score_title": "Bien\u00a0 ", "score_expe": "518", "url": "https://www.booking.com/hotel/fr/novotel.fr.html"},
{"location": "Bayeux", "date_updated": "2022-01-02", "hotel_name": "Grand H\u00f4tel Du Luxembourg Et La Table Du Grand Luxembourg", "hotel_lat": 49.27842191, "hotel_lon": -0.70329666, "hotel_score": "7.8", "score_title": "Bien\u00a0 ", "score_expe": "1", "url": "https://www.booking.com/hotel/fr/hotelduluxembourg.fr.html"},
{"location": "Bayeux", "date_updated": "2022-01-02", "hotel_name": "Ch\u00e2teau De Bellefontaine", "hotel_lat": 49.26974024, "hotel_lon": -0.68883955, "hotel_score": "8.2", "score_title": "Tr\u00e8s bien ", "score_expe": "1", "url": "https://www.booking.com/hotel/fr/chateau-de-bellefontaine.fr.html"},
{"location": "Bayeux", "date_updated": "2022-01-02", "hotel_name": "Villa Lara Hotel", "hotel_lat": 49.27551886, "hotel_lon": -0.70096448, "hotel_score": "9.7", "score_title": "Exceptionnel ", "score_expe": "65", "url": "https://www.booking.com/hotel/fr/villa-lara-ha-tel.fr.html"},
{"location": "St Malo", "date_updated": "2022-01-02", "hotel_name": "H\u00f4tel Cartier", "hotel_lat": 48.65001325, "hotel_lon": -2.02483177, "hotel_score": "7.5", "score_title": "Bien\u00a0 ", "score_expe": "1", "url": "https://www.booking.com/hotel/fr/cartier.fr.html"},
{"location": "St Malo", "date_updated": "2022-01-02", "hotel_name": "H\u00f4tel Ar Iniz", "hotel_lat": 48.66167888, "hotel_lon": -1.99165016, "hotel_score": "8.6", "score_title": "Superbe ", "score_expe": "698", "url": "https://www.booking.com/hotel/fr/ar-iniz.fr.html"},
{"location": "St Malo", "date_updated": "2022-01-02", "hotel_name": "The Originals Boutique, H\u00f4tel Des Marins, Saint-Malo (Inter-Hotel)", "hotel_lat": 48.64880649, "hotel_lon": -2.02491224, "hotel_score": "8.6", "score_title": "Superbe ", "score_expe": "843", "url": "https://www.booking.com/hotel/fr/dulouvresaintmalo.fr.html"},
{"location": "St Malo", "date_updated": "2022-01-02", "hotel_name": "Hotel Alba", "hotel_lat": 48.65649842, "hotel_lon": -2.00342774, "hotel_score": "7.5", "score_title": "Bien\u00a0 ", "score_expe": "1", "url": "https://www.booking.com/hotel/fr/alba-saint-malo.fr.html"},
{"location": "St Malo", "date_updated": "2022-01-02", "hotel_name": "Ibis Saint-Malo Madeleine", "hotel_lat": 48.62597716, "hotel_lon": -1.99032784, "hotel_score": "7.9", "score_title": "Bien\u00a0 ", "score_expe": "1", "url": "https://www.booking.com/hotel/fr/ibis-saint-malo-madeleine.fr.html"},
{"location": "St Malo", "date_updated": "2022-01-02", "hotel_name": "Hotel Ajoncs D'Or", "hotel_lat": 48.64735692, "hotel_lon": -2.02519655, "hotel_score": "8.6", "score_title": "Superbe ", "score_expe": "1", "url": "https://www.booking.com/hotel/fr/ajoncsdor.fr.html"},
{"location": "St Malo", "date_updated": "2022-01-02", "hotel_name": "Hotel De France Et Chateaubriand", "hotel_lat": 48.6511934, "hotel_lon": -2.02379644, "hotel_score": "7.9", "score_title": "Bien\u00a0 ", "score_expe": "2", "url": "https://www.booking.com/hotel/fr/de-france-et-chateaubriand.fr.html"},
{"location": "St Malo", "date_updated": "2022-01-02", "hotel_name": "Ibis Styles Saint Malo Port", "hotel_lat": 48.63962614, "hotel_lon": -2.01236531, "hotel_score": "8.0", "score_title": "Tr\u00e8s bien ", "score_expe": "2", "url": "https://www.booking.com/hotel/fr/ibis-styles-saint-malo-port.fr.html"},
{"location": "St Malo", "date_updated": "2022-01-02", "hotel_name": "H\u00f4tel Le Beaufort", "hotel_lat": 48.65496934, "hotel_lon": -2.0069924, "hotel_score": "8.6", "score_title": "Superbe ", "score_expe": "636", "url": "https://www.booking.com/hotel/fr/beaufort.fr.html"},
{"location": "St Malo", "date_updated": "2022-01-02", "hotel_name": "Hotel De L'Univers", "hotel_lat": 48.65104101, "hotel_lon": -2.0237267, "hotel_score": "8.1", "score_title": "Tr\u00e8s bien ", "score_expe": "2", "url": "https://www.booking.com/hotel/fr/de-l-univers.fr.html"},
{"location": "St Malo", "date_updated": "2022-01-02", "hotel_name": "Escale Oceania Saint Malo", "hotel_lat": 48.65428009, "hotel_lon": -2.00883776, "hotel_score": "8.2", "score_title": "Tr\u00e8s bien ", "score_expe": "1", "url": "https://www.booking.com/hotel/fr/mascottesaintmalo.fr.html"},
{"location": "St Malo", "date_updated": "2022-01-02", "hotel_name": "Mercure St Malo Front De Mer", "hotel_lat": 48.65256666, "hotel_lon": -2.01424241, "hotel_score": "8.0", "score_title": "Tr\u00e8s bien ", "score_expe": "622", "url": "https://www.booking.com/hotel/fr/st-malo-front-de-mer.fr.html"},
{"location": "St Malo", "date_updated": "2022-01-02", "hotel_name": "Ch\u00e2teau H\u00f4tel Du Colombier", "hotel_lat": 48.63858774, "hotel_lon": -1.96755052, "hotel_score": "8.9", "score_title": "Superbe ", "score_expe": "229", "url": "https://www.booking.com/hotel/fr/chateau-du-colombie.fr.html"},
{"location": "St Malo", "date_updated": "2022-01-02", "hotel_name": "Mercure Saint Malo Balmoral", "hotel_lat": 48.64649567, "hotel_lon": -2.00599194, "hotel_score": "8.3", "score_title": "Tr\u00e8s bien ", "score_expe": "818", "url": "https://www.booking.com/hotel/fr/best-western-balmoral.fr.html"},
{"location": "St Malo", "date_updated": "2022-01-02", "hotel_name": "Golden Tulip Saint Malo\u2013 Le Grand B\u00e9", "hotel_lat": 48.64956907, "hotel_lon": -2.02686496, "hotel_score": "9.0", "score_title": "Fabuleux\u00a0 ", "score_expe": "1", "url": "https://www.booking.com/hotel/fr/golden-tulip-saint-malo.fr.html"},
{"location": "St Malo", "date_updated": "2022-01-02", "hotel_name": "H\u00f4tel La Villefromoy", "hotel_lat": 48.66144857, "hotel_lon": -1.99189693, "hotel_score": "8.9", "score_title": "Superbe ", "score_expe": "1", "url": "https://www.booking.com/hotel/fr/lavillefromoysainmalo.fr.html"},
{"location": "St Malo", "date_updated": "2022-01-02", "hotel_name": "Best Western Alexandra", "hotel_lat": 48.65716461, "hotel_lon": -2.00131685, "hotel_score": "8.2", "score_title": "Tr\u00e8s bien ", "score_expe": "516", "url": "https://www.booking.com/hotel/fr/best-western-alexandra.fr.html"},
{"location": "St Malo", "date_updated": "2022-01-02", "hotel_name": "H\u00f4tel Et Appart\u2019H\u00f4tel L'Adresse", "hotel_lat": 48.65210596, "hotel_lon": -2.0171231, "hotel_score": "8.9", "score_title": "Superbe ", "score_expe": "744", "url": "https://www.booking.com/hotel/fr/adresse.fr.html"},
{"location": "St Malo", "date_updated": "2022-01-02", "hotel_name": "La Maison Des Armateurs", "hotel_lat": 48.6492052, "hotel_lon": -2.02463329, "hotel_score": "8.8", "score_title": "Superbe ", "score_expe": "1", "url": "https://www.booking.com/hotel/fr/la-maison-des-armateurs.fr.html"},
{"location": "St Malo", "date_updated": "2022-01-02", "hotel_name": "Residence Reine Marine", "hotel_lat": 48.66913503, "hotel_lon": -1.98354185, "hotel_score": "8.3", "score_title": "Tr\u00e8s bien ", "score_expe": "779", "url": "https://www.booking.com/hotel/fr/residence-reine-marine.fr.html"},
{"location": "St Malo", "date_updated": "2022-01-02", "hotel_name": "H\u00f4tel Le Nouveau Monde", "hotel_lat": 48.65342427, "hotel_lon": -2.01143146, "hotel_score": "8.9", "score_title": "Superbe ", "score_expe": "661", "url": "https://www.booking.com/hotel/fr/ha-tel-le-nouveau-monde.fr.html"},
{"location": "St Malo", "date_updated": "2022-01-02", "hotel_name": "Grand H\u00f4tel De Courtoisville - Piscine & Spa, The Originals Relais (Relais Du Silence)", "hotel_lat": 48.65782725, "hotel_lon": -1.99775219, "hotel_score": "7.8", "score_title": "Bien\u00a0 ", "score_expe": "1", "url": "https://www.booking.com/hotel/fr/grand-de-courtoisville.fr.html"},
{"location": "St Malo", "date_updated": "2022-01-02", "hotel_name": "Oceania Saint Malo", "hotel_lat": 48.65175689, "hotel_lon": -2.01843202, "hotel_score": "8.4", "score_title": "Tr\u00e8s bien ", "score_expe": "1", "url": "https://www.booking.com/hotel/fr/oceaniasaintmalo.fr.html"},
{"location": "St Malo", "date_updated": "2022-01-02", "hotel_name": "Grand H\u00f4tel Des Thermes", "hotel_lat": 48.65783788, "hotel_lon": -1.99934542, "hotel_score": "8.1", "score_title": "Tr\u00e8s bien ", "score_expe": "354", "url": "https://www.booking.com/hotel/fr/desthermessaintmalo.fr.html"},
{"location": "Mont Saint Michel", "date_updated": "2022-01-02", "hotel_name": "H\u00f4tel Vert", "hotel_lat": 48.61470049, "hotel_lon": -1.50961697, "hotel_score": "8.1", "score_title": "Tr\u00e8s bien ", "score_expe": "3", "url": "https://www.booking.com/hotel/fr/vert.fr.html"},
{"location": "Mont Saint Michel", "date_updated": "2022-01-02", "hotel_name": "H\u00f4tel La Croix Blanche", "hotel_lat": 48.63573406, "hotel_lon": -1.50986105, "hotel_score": "7.6", "score_title": "Bien\u00a0 ", "score_expe": "378", "url": "https://www.booking.com/hotel/fr/ha-el-la-croix-blanche.fr.html"},
{"location": "Mont Saint Michel", "date_updated": "2022-01-02", "hotel_name": "Le Relais Du Roy", "hotel_lat": 48.6162627, "hotel_lon": -1.51090577, "hotel_score": "8.1", "score_title": "Tr\u00e8s bien ", "score_expe": "1", "url": "https://www.booking.com/hotel/fr/le-relais-du-roy.fr.html"},
{"location": "Mont Saint Michel", "date_updated": "2022-01-02", "hotel_name": "Le Saint Aubert", "hotel_lat": 48.61293783, "hotel_lon": -1.51010513, "hotel_score": "7.3", "score_title": "Bien\u00a0 ", "score_expe": "1", "url": "https://www.booking.com/hotel/fr/hotel-saint-aubert.fr.html"},
{"location": "Mont Saint Michel", "date_updated": "2022-01-02", "hotel_name": "Hotel Gabriel", "hotel_lat": 48.61538141, "hotel_lon": -1.51070997, "hotel_score": "8.1", "score_title": "Tr\u00e8s bien ", "score_expe": "2", "url": "https://www.booking.com/hotel/fr/hotel-gabriel.fr.html"},
{"location": "Mont Saint Michel", "date_updated": "2022-01-02", "hotel_name": "Auberge Saint Pierre", "hotel_lat": 48.63568798, "hotel_lon": -1.50988251, "hotel_score": "8.1", "score_title": "Tr\u00e8s bien ", "score_expe": "789", "url": "https://www.booking.com/hotel/fr/auberge-saint-pierre.fr.html"},
{"location": "Mont Saint Michel", "date_updated": "2022-01-02", "hotel_name": "Hotel De La Digue", "hotel_lat": 48.61688155, "hotel_lon": -1.51091784, "hotel_score": "7.1", "score_title": "Bien\u00a0 ", "score_expe": "2", "url": "https://www.booking.com/hotel/fr/de-la-digue.fr.html"},
{"location": "Mont Saint Michel", "date_updated": "2022-01-02", "hotel_name": "Le Mouton Blanc", "hotel_lat": 48.63602298, "hotel_lon": -1.50989592, "hotel_score": "7.2", "score_title": "Bien\u00a0 ", "score_expe": "1", "url": "https://www.booking.com/hotel/fr/le-mouton-blanc-le-mont-saint-michel.fr.html"},
{"location": "Mont Saint Michel", "date_updated": "2022-01-02", "hotel_name": "La M\u00e8re Poulard", "hotel_lat": 48.63508532, "hotel_lon": -1.51053965, "hotel_score": "7.2", "score_title": "Bien\u00a0 ", "score_expe": "1", "url": "https://www.booking.com/hotel/fr/la-mere-poulard.fr.html"},
{"location": "Mont Saint Michel", "date_updated": "2022-01-02", "hotel_name": "Les Terrasses Poulard", "hotel_lat": 48.63534943, "hotel_lon": -1.51037872, "hotel_score": "7.3", "score_title": "Bien\u00a0 ", "score_expe": "2", "url": "https://www.booking.com/hotel/fr/les-terrasses-poulard.fr.html"},
{"location": "Mont Saint Michel", "date_updated": "2022-01-02", "hotel_name": "Mercure Mont Saint Michel", "hotel_lat": 48.61424653, "hotel_lon": -1.51054502, "hotel_score": "8.2", "score_title": "Tr\u00e8s bien ", "score_expe": "3", "url": "https://www.booking.com/hotel/fr/mont-saint-michel.fr.html"},
{"location": "Mont Saint Michel", "date_updated": "2022-01-02", "hotel_name": "Le Relais Saint Michel", "hotel_lat": 48.61758727, "hotel_lon": -1.51039615, "hotel_score": "7.8", "score_title": "Bien\u00a0 ", "score_expe": "1", "url": "https://www.booking.com/hotel/fr/le-relais-saint-michel.fr.html"},
{"location": "Amiens", "date_updated": "2022-01-02", "hotel_name": "Le Vivier", "hotel_lat": 49.885365, "hotel_lon": 2.269669, "hotel_score": "8.4", "score_title": "Tr\u00e8s bien ", "score_expe": "262", "url": "https://www.booking.com/hotel/fr/le-vivier-amiens.fr.html"},
{"location": "Lille", "date_updated": "2022-01-02", "hotel_name": "Best Western Urban Hotel", "hotel_lat": 50.62326, "hotel_lon": 3.07548121, "hotel_score": "7.8", "score_title": "Bien\u00a0 ", "score_expe": "1", "url": "https://www.booking.com/hotel/fr/hotel-spa-grand-palais-lille.fr.html"},
{"location": "Strasbourg", "date_updated": "2022-01-02", "hotel_name": "Boma Easy Living Hotel", "hotel_lat": 48.5828931, "hotel_lon": 7.7420407, "hotel_score": "8.9", "score_title": "Superbe ", "score_expe": "3", "url": "https://www.booking.com/hotel/fr/boma-strasbourg.fr.html"},
{"location": "Chateau du Haut Koenigsbourg", "date_updated": "2022-01-02", "hotel_name": "Hotel Le Mandelberg", "hotel_lat": 48.15237298, "hotel_lon": 7.32169032, "hotel_score": "9.2", "score_title": "Fabuleux\u00a0 ", "score_expe": "554", "url": "https://www.booking.com/hotel/fr/le-mandelberg.fr.html"},
{"location": "Colmar", "date_updated": "2022-01-02", "hotel_name": "Ibis Styles Colmar Centre", "hotel_lat": 48.076817, "hotel_lon": 7.355199, "hotel_score": "8.2", "score_title": "Tr\u00e8s bien ", "score_expe": "1", "url": "https://www.booking.com/hotel/fr/all-seasons.fr.html"},
{"location": "Eguisheim", "date_updated": "2022-01-02", "hotel_name": "H\u00f4tel Restaurant \u00c0 La Ville De Nancy", "hotel_lat": 48.04349458, "hotel_lon": 7.30439007, "hotel_score": "8.4", "score_title": "Tr\u00e8s bien ", "score_expe": "325", "url": "https://www.booking.com/hotel/fr/ha-tel-restaurant-a-la-ville-de-nancy.fr.html"},
{"location": "Eguisheim", "date_updated": "2022-01-02", "hotel_name": "Hotel Colmar Vignes Eguisheim", "hotel_lat": 48.04327133, "hotel_lon": 7.30412185, "hotel_score": "8.8", "score_title": "Superbe ", "score_expe": "953", "url": "https://www.booking.com/hotel/fr/auberge-des-comtes.fr.html"},
{"location": "Eguisheim", "date_updated": "2022-01-02", "hotel_name": "H\u00f4tel L'Auberge Alsacienne", "hotel_lat": 48.04223841, "hotel_lon": 7.30916776, "hotel_score": "8.6", "score_title": "Superbe ", "score_expe": "518", "url": "https://www.booking.com/hotel/fr/ha-tel-restaurant-l-auberge-alsacienne.fr.html"},
{"location": "Eguisheim", "date_updated": "2022-01-02", "hotel_name": "L'Hostellerie Du Ch\u00e2teau", "hotel_lat": 48.04242043, "hotel_lon": 7.30631925, "hotel_score": "9.1", "score_title": "Fabuleux\u00a0 ", "score_expe": "532", "url": "https://www.booking.com/hotel/fr/hostellerie-du-chateau-eguisheim.fr.html"},
{"location": "Eguisheim", "date_updated": "2022-01-02", "hotel_name": "Brit Hotel Confort La Ferme Du Pape", "hotel_lat": 48.04228862, "hotel_lon": 7.3094514, "hotel_score": "7.9", "score_title": "Bien\u00a0 ", "score_expe": "1", "url": "https://www.booking.com/hotel/fr/hostellerie-du-pape.fr.html"},
{"location": "Eguisheim", "date_updated": "2022-01-02", "hotel_name": "R\u00e9sidence Pierre & Vacances Le Clos D'Eguisheim", "hotel_lat": 48.04502734, "hotel_lon": 7.31185466, "hotel_score": "8.0", "score_title": "Tr\u00e8s bien ", "score_expe": "664", "url": "https://www.booking.com/hotel/fr/residence-pierre-et-vacances-le-clos-d-eguisheim.fr.html"},
{"location": "Eguisheim", "date_updated": "2022-01-02", "hotel_name": "James Vignoble H\u00f4tel - Eguisheim", "hotel_lat": 48.04496277, "hotel_lon": 7.30157845, "hotel_score": "8.8", "score_title": "Superbe ", "score_expe": "891", "url": "https://www.booking.com/hotel/fr/saint-hubert-eguisheim.fr.html"},
{"location": "Colmar", "date_updated": "2022-01-02", "hotel_name": "Ibis Colmar Centre", "hotel_lat": 48.079198, "hotel_lon": 7.363507, "hotel_score": "8.0", "score_title": "Tr\u00e8s bien ", "score_expe": "1", "url": "https://www.booking.com/hotel/fr/ibis-colmar-centre.fr.html"},
{"location": "Colmar", "date_updated": "2022-01-02", "hotel_name": "H\u00f4tel Turenne", "hotel_lat": 48.07192026, "hotel_lon": 7.36053944, "hotel_score": "8.6", "score_title": "Superbe ", "score_expe": "4", "url": "https://www.booking.com/hotel/fr/turenne-colmar.fr.html"},
{"location": "Colmar", "date_updated": "2022-01-02", "hotel_name": "R\u00e9sidence Pierre & Vacances La Petite Venise", "hotel_lat": 48.07093986, "hotel_lon": 7.35386556, "hotel_score": "8.3", "score_title": "Tr\u00e8s bien ", "score_expe": "1", "url": "https://www.booking.com/hotel/fr/la-petite-venise.fr.html"},
{"location": "Colmar", "date_updated": "2022-01-02", "hotel_name": "Campanile Colmar - Parc Des Expositions", "hotel_lat": 48.10965199, "hotel_lon": 7.36455202, "hotel_score": "7.4", "score_title": "Bien\u00a0 ", "score_expe": "1", "url": "https://www.booking.com/hotel/fr/campanile-colmar-aeroport.fr.html"},
{"location": "Colmar", "date_updated": "2022-01-02", "hotel_name": "Paul & Pia - Welcome Home Hotel", "hotel_lat": 48.07654046, "hotel_lon": 7.34987363, "hotel_score": "8.8", "score_title": "Superbe ", "score_expe": "1", "url": "https://www.booking.com/hotel/fr/kyriad-colmar-gare.fr.html"},
{"location": "Colmar", "date_updated": "2022-01-02", "hotel_name": "Hotel Saint-Martin", "hotel_lat": 48.07641681, "hotel_lon": 7.35935189, "hotel_score": "8.3", "score_title": "Tr\u00e8s bien ", "score_expe": "2", "url": "https://www.booking.com/hotel/fr/hotelsaintmartin.fr.html"},
{"location": "Colmar", "date_updated": "2022-01-02", "hotel_name": "Comfort Hotel Expo Colmar", "hotel_lat": 48.09965719, "hotel_lon": 7.3624015, "hotel_score": "8.7", "score_title": "Superbe ", "score_expe": "2", "url": "https://www.booking.com/hotel/fr/comfort-expo-colmar.fr.html"},
{"location": "Colmar", "date_updated": "2022-01-02", "hotel_name": "Kyriad Colmar Centre Unterlinden", "hotel_lat": 48.08601523, "hotel_lon": 7.35729933, "hotel_score": "8.5", "score_title": "Tr\u00e8s bien ", "score_expe": "2", "url": "https://www.booking.com/hotel/fr/kyriad-colmar-cita-c-administrative.fr.html"},
{"location": "Colmar", "date_updated": "2022-01-02", "hotel_name": "Ibis Colmar Est - Hotel Restaurant En Alsace", "hotel_lat": 48.07790332, "hotel_lon": 7.40279764, "hotel_score": "7.6", "score_title": "Bien\u00a0 ", "score_expe": "2", "url": "https://www.booking.com/hotel/fr/ibis-colmar-horbourg-wihr.fr.html"},
{"location": "Colmar", "date_updated": "2022-01-02", "hotel_name": "Colmar Hotel", "hotel_lat": 48.07080074, "hotel_lon": 7.34638973, "hotel_score": "9.1", "score_title": "Fabuleux\u00a0 ", "score_expe": "5", "url": "https://www.booking.com/hotel/fr/colmar.fr.html"},
{"location": "Colmar", "date_updated": "2022-01-02", "hotel_name": "Le Rapp", "hotel_lat": 48.0764186, "hotel_lon": 7.35596895, "hotel_score": "8.2", "score_title": "Tr\u00e8s bien ", "score_expe": "997", "url": "https://www.booking.com/hotel/fr/le-rapp.fr.html"},
{"location": "Colmar", "date_updated": "2022-01-02", "hotel_name": "Novotel Suites Colmar Centre", "hotel_lat": 48.07161742, "hotel_lon": 7.35999106, "hotel_score": "9.0", "score_title": "Fabuleux\u00a0 ", "score_expe": "2", "url": "https://www.booking.com/hotel/fr/novotel-suites-colmar-centre.fr.html"},
{"location": "Colmar", "date_updated": "2022-01-02", "hotel_name": "H\u00f4tel Quatorze", "hotel_lat": 48.0762385, "hotel_lon": 7.35644773, "hotel_score": "8.3", "score_title": "Tr\u00e8s bien ", "score_expe": "585", "url": "https://www.booking.com/hotel/fr/quatorze.fr.html"},
{"location": "Colmar", "date_updated": "2022-01-02", "hotel_name": "James Boutique H\u00f4tel Colmar Centre", "hotel_lat": 48.07934802, "hotel_lon": 7.3644799, "hotel_score": "9.1", "score_title": "Fabuleux\u00a0 ", "score_expe": "1", "url": "https://www.booking.com/hotel/fr/james-boutique-hotel.fr.html"},
{"location": "Colmar", "date_updated": "2022-01-02", "hotel_name": "Hotel Le Colombier Suites", "hotel_lat": 48.07394456, "hotel_lon": 7.35857606, "hotel_score": "8.6", "score_title": "Superbe ", "score_expe": "874", "url": "https://www.booking.com/hotel/fr/colombier-suites.fr.html"},
{"location": "Colmar", "date_updated": "2022-01-02", "hotel_name": "Hotel Restaurant Le Mar\u00e9chal - Les Collectionneurs", "hotel_lat": 48.07357179, "hotel_lon": 7.35667169, "hotel_score": "8.7", "score_title": "Superbe ", "score_expe": "1", "url": "https://www.booking.com/hotel/fr/hostellerie-le-marechal.fr.html"},
{"location": "Colmar", "date_updated": "2022-01-02", "hotel_name": "H\u00f4tel Roi Soleil Prestige Colmar", "hotel_lat": 48.11283258, "hotel_lon": 7.36520648, "hotel_score": "8.6", "score_title": "Superbe ", "score_expe": "1", "url": "https://www.booking.com/hotel/fr/roi-soleil-prestige.fr.html"},
{"location": "Colmar", "date_updated": "2022-01-02", "hotel_name": "Mercure Colmar Centre Unterlinden", "hotel_lat": 48.0810608, "hotel_lon": 7.35717729, "hotel_score": "8.2", "score_title": "Tr\u00e8s bien ", "score_expe": "1", "url": "https://www.booking.com/hotel/fr/colmar-centre-unterlinden.fr.html"},
{"location": "Colmar", "date_updated": "2022-01-02", "hotel_name": "Hotel L'Europe", "hotel_lat": 48.07720622, "hotel_lon": 7.40387186, "hotel_score": "8.3", "score_title": "Tr\u00e8s bien ", "score_expe": "1", "url": "https://www.booking.com/hotel/fr/l-europe.fr.html"},
{"location": "Colmar", "date_updated": "2022-01-02", "hotel_name": "Le Colombier", "hotel_lat": 48.07376803, "hotel_lon": 7.35829376, "hotel_score": "8.5", "score_title": "Tr\u00e8s bien ", "score_expe": "2", "url": "https://www.booking.com/hotel/fr/colombiercolmar.fr.html"},
{"location": "Colmar", "date_updated": "2022-01-02", "hotel_name": "Grand H\u00f4tel Bristol", "hotel_lat": 48.07245883, "hotel_lon": 7.34755754, "hotel_score": "8.1", "score_title": "Tr\u00e8s bien ", "score_expe": "2", "url": "https://www.booking.com/hotel/fr/grandhotelbristol.fr.html"},
{"location": "Colmar", "date_updated": "2022-01-02", "hotel_name": "Odalys City Colmar La Rose D'Argent", "hotel_lat": 48.07891558, "hotel_lon": 7.36514839, "hotel_score": "7.9", "score_title": "Bien\u00a0 ", "score_expe": "4", "url": "https://www.booking.com/hotel/fr/appart-39-odalys-la-rose-d-39-argent.fr.html"},
{"location": "Colmar", "date_updated": "2022-01-02", "hotel_name": "L'Esquisse Hotel & Spa Colmar - Mgallery", "hotel_lat": 48.07545714, "hotel_lon": 7.35353217, "hotel_score": "9.0", "score_title": "Fabuleux\u00a0 ", "score_expe": "244", "url": "https://www.booking.com/hotel/fr/colmar-champ-de-mars.fr.html"},
{"location": "Colmar", "date_updated": "2022-01-02", "hotel_name": "Relais & Ch\u00e2teaux La Maison Des T\u00eates", "hotel_lat": 48.07859549, "hotel_lon": 7.35552706, "hotel_score": "9.0", "score_title": "Fabuleux\u00a0 ", "score_expe": "465", "url": "https://www.booking.com/hotel/fr/la-maison-des-tetes.fr.html"},
{"location": "Chateau du Haut Koenigsbourg", "date_updated": "2022-01-02", "hotel_name": "R\u00e9sidence Odalys Le Domaine Des Rois", "hotel_lat": 48.2067789, "hotel_lon": 7.35512674, "hotel_score": "7.2", "score_title": "Bien\u00a0 ", "score_expe": "164", "url": "https://www.booking.com/hotel/fr/le-domaine-des-rois.fr.html"},
{"location": "Chateau du Haut Koenigsbourg", "date_updated": "2022-01-02", "hotel_name": "L'Abbaye D'Alspach", "hotel_lat": 48.13668172, "hotel_lon": 7.28546575, "hotel_score": "8.7", "score_title": "Superbe ", "score_expe": "726", "url": "https://www.booking.com/hotel/fr/abbaye-d-alspach.fr.html"},
{"location": "Chateau du Haut Koenigsbourg", "date_updated": "2022-01-02", "hotel_name": "H\u00f4tel Du Haut Koenigsbourg - Le Hk Romantique Au Naturel", "hotel_lat": 48.23164092, "hotel_lon": 7.30222034, "hotel_score": "9.2", "score_title": "Fabuleux\u00a0 ", "score_expe": "675", "url": "https://www.booking.com/hotel/fr/le-haut-koenigsbourg.fr.html"},
{"location": "Chateau du Haut Koenigsbourg", "date_updated": "2022-01-02", "hotel_name": "Hotel Restaurant Au Riesling", "hotel_lat": 48.1718223, "hotel_lon": 7.32179895, "hotel_score": "8.6", "score_title": "Superbe ", "score_expe": "438", "url": "https://www.booking.com/hotel/fr/auriesling.fr.html"},
{"location": "Chateau du Haut Koenigsbourg", "date_updated": "2022-01-02", "hotel_name": "Les Pr\u00e9s D'Ondine", "hotel_lat": 48.26213418, "hotel_lon": 7.49853909, "hotel_score": "9.0", "score_title": "Fabuleux\u00a0 ", "score_expe": "303", "url": "https://www.booking.com/hotel/fr/les-pres-d-ondine.fr.html"},
{"location": "Chateau du Haut Koenigsbourg", "date_updated": "2022-01-02", "hotel_name": "H\u00f4tel Le M\u00e9nestrel", "hotel_lat": 48.18716222, "hotel_lon": 7.32538104, "hotel_score": "8.3", "score_title": "Tr\u00e8s bien ", "score_expe": "1", "url": "https://www.booking.com/hotel/fr/le-menestrel.fr.html"},
{"location": "Chateau du Haut Koenigsbourg", "date_updated": "2022-01-02", "hotel_name": "Hotel Restaurant Au Cheval Blanc", "hotel_lat": 48.19661034, "hotel_lon": 7.31340766, "hotel_score": "8.2", "score_title": "Tr\u00e8s bien ", "score_expe": "614", "url": "https://www.booking.com/hotel/fr/restaurant-au-cheval-blanc.fr.html"},
{"location": "Chateau du Haut Koenigsbourg", "date_updated": "2022-01-02", "hotel_name": "Hotel \u00c0 L'Oriel", "hotel_lat": 48.16663999, "hotel_lon": 7.2989291, "hotel_score": "8.4", "score_title": "Tr\u00e8s bien ", "score_expe": "814", "url": "https://www.booking.com/hotel/fr/a-l-oriel.fr.html"},
{"location": "Chateau du Haut Koenigsbourg", "date_updated": "2022-01-02", "hotel_name": "H\u00f4tel Le Riquewihr", "hotel_lat": 48.16602996, "hotel_lon": 7.30618447, "hotel_score": "8.2", "score_title": "Tr\u00e8s bien ", "score_expe": "1", "url": "https://www.booking.com/hotel/fr/le-riquewihr.fr.html"},
{"location": "Chateau du Haut Koenigsbourg", "date_updated": "2022-01-02", "hotel_name": "Best Western Hotel & Spa Le Schoenenbourg", "hotel_lat": 48.16697453, "hotel_lon": 7.30060011, "hotel_score": "8.6", "score_title": "Superbe ", "score_expe": "2", "url": "https://www.booking.com/hotel/fr/le-schoenenbourg.fr.html"},
{"location": "Chateau du Haut Koenigsbourg", "date_updated": "2022-01-02", "hotel_name": "Hotel Au Nid De Cigognes", "hotel_lat": 48.1604785, "hotel_lon": 7.37237871, "hotel_score": "8.4", "score_title": "Tr\u00e8s bien ", "score_expe": "655", "url": "https://www.booking.com/hotel/fr/au-nid-de-cigognes.fr.html"},
{"location": "Chateau du Haut Koenigsbourg", "date_updated": "2022-01-02", "hotel_name": "H\u00f4tel L'Oray\u00e9 - Colmar Ouest", "hotel_lat": 48.12183962, "hotel_lon": 7.28607595, "hotel_score": "8.6", "score_title": "Superbe ", "score_expe": "469", "url": "https://www.booking.com/hotel/fr/l-oraye.fr.html"},
{"location": "Chateau du Haut Koenigsbourg", "date_updated": "2022-01-02", "hotel_name": "Le Clos Des Sources H\u00f4tel & Spa", "hotel_lat": 48.23104798, "hotel_lon": 7.30221748, "hotel_score": "8.5", "score_title": "Tr\u00e8s bien ", "score_expe": "345", "url": "https://www.booking.com/hotel/fr/touringhotel.fr.html"},
{"location": "Chateau du Haut Koenigsbourg", "date_updated": "2022-01-02", "hotel_name": "Le Verger Des Ch\u00e2teaux, The Originals Relais (Inter-Hotel)", "hotel_lat": 48.30655512, "hotel_lon": 7.41947293, "hotel_score": "8.0", "score_title": "Tr\u00e8s bien ", "score_expe": "764", "url": "https://www.booking.com/hotel/fr/le-verger-des-chateaux.fr.html"},
{"location": "Chateau du Haut Koenigsbourg", "date_updated": "2022-01-02", "hotel_name": "H\u00f4tel Restaurant Le Schlossberg", "hotel_lat": 48.16800494, "hotel_lon": 7.31888339, "hotel_score": "8.4", "score_title": "Tr\u00e8s bien ", "score_expe": "314", "url": "https://www.booking.com/hotel/fr/le-schlossberg.fr.html"},
{"location": "Chateau du Haut Koenigsbourg", "date_updated": "2022-01-02", "hotel_name": "H\u00f4tel Barri\u00e8re Ribeauvill\u00e9", "hotel_lat": 48.18754395, "hotel_lon": 7.34917787, "hotel_score": "8.7", "score_title": "Superbe ", "score_expe": "746", "url": "https://www.booking.com/hotel/fr/resort-barriere-ribeauville.fr.html"},
{"location": "Chateau du Haut Koenigsbourg", "date_updated": "2022-01-02", "hotel_name": "Logis Hotel Le Parc & Spa", "hotel_lat": 48.23240406, "hotel_lon": 7.36546665, "hotel_score": "8.7", "score_title": "Superbe ", "score_expe": "806", "url": "https://www.booking.com/hotel/fr/logis-le-parc-st-hippolyte.fr.html"},
{"location": "Chateau du Haut Koenigsbourg", "date_updated": "2022-01-02", "hotel_name": "Hotel Restaurant De L'Illwald", "hotel_lat": 48.21825006, "hotel_lon": 7.49813139, "hotel_score": "8.8", "score_title": "Superbe ", "score_expe": "357", "url": "https://www.booking.com/hotel/fr/de-l-illwald.fr.html"},
{"location": "Chateau du Haut Koenigsbourg", "date_updated": "2022-01-02", "hotel_name": "L' H\u00f4tel & Spa Ribeauville", "hotel_lat": 48.193067, "hotel_lon": 7.324492, "hotel_score": "7.5", "score_title": "Bien\u00a0 ", "score_expe": "112", "url": "https://www.booking.com/hotel/fr/l-39-amp-spa-ribeauville.fr.html"},
{"location": "Chateau du Haut Koenigsbourg", "date_updated": "2022-01-02", "hotel_name": "Best Western Plus Hotel & Restaurant Les Humanistes", "hotel_lat": 48.2557446, "hotel_lon": 7.42404993, "hotel_score": "8.8", "score_title": "Superbe ", "score_expe": "1", "url": "https://www.booking.com/hotel/fr/best-western-plus-les-humanistes.fr.html"},
{"location": "Chateau du Haut Koenigsbourg", "date_updated": "2022-01-02", "hotel_name": "Hotel Kle, Bw Signature Collection", "hotel_lat": 48.13876337, "hotel_lon": 7.26290166, "hotel_score": "8.9", "score_title": "Superbe ", "score_expe": "1", "url": "https://www.booking.com/hotel/fr/hotel-kle-kaysersberg.fr.html"},
{"location": "Chateau du Haut Koenigsbourg", "date_updated": "2022-01-02", "hotel_name": "H\u00f4tel Val-Vignes Colmar Haut-Koenigsbourg, The Originals Relais", "hotel_lat": 48.23481955, "hotel_lon": 7.36778677, "hotel_score": "8.3", "score_title": "Tr\u00e8s bien ", "score_expe": "1", "url": "https://www.booking.com/hotel/fr/val-vignes.fr.html"},
{"location": "Chateau du Haut Koenigsbourg", "date_updated": "2022-01-02", "hotel_name": "Hotel Des Berges, Restaurant Gastronomique & Spa", "hotel_lat": 48.18341437, "hotel_lon": 7.43246006, "hotel_score": "9.5", "score_title": "Exceptionnel ", "score_expe": "61", "url": "https://www.booking.com/hotel/fr/des-berges.fr.html"},
{"location": "Chateau du Haut Koenigsbourg", "date_updated": "2022-01-02", "hotel_name": "Relais Et Ch\u00e2teaux Le Chambard", "hotel_lat": 48.13857095, "hotel_lon": 7.26551414, "hotel_score": "9.1", "score_title": "Fabuleux\u00a0 ", "score_expe": "275", "url": "https://www.booking.com/hotel/fr/le-chambard.fr.html"},
{"location": "Strasbourg", "date_updated": "2022-01-02", "hotel_name": "Le Lodge Brit Hotel Strasbourg Zenith", "hotel_lat": 48.58829415, "hotel_lon": 7.69744687, "hotel_score": "8.3", "score_title": "Tr\u00e8s bien ", "score_expe": "718", "url": "https://www.booking.com/hotel/fr/brit-le-lodge.fr.html"},
{"location": "Strasbourg", "date_updated": "2022-01-02", "hotel_name": "Hotel Kaijoo By Happyculture", "hotel_lat": 48.58341403, "hotel_lon": 7.74176516, "hotel_score": "7.4", "score_title": "Bien\u00a0 ", "score_expe": "2", "url": "https://www.booking.com/hotel/fr/hotel-kaijoo-by-happyculture.fr.html"},
{"location": "Strasbourg", "date_updated": "2022-01-02", "hotel_name": "Okko Hotels Strasbourg Centre", "hotel_lat": 48.57408002, "hotel_lon": 7.76544945, "hotel_score": "8.8", "score_title": "Superbe ", "score_expe": "2", "url": "https://www.booking.com/hotel/fr/okko-hotels-strasboug-centre-strasbourg12.fr.html"},
{"location": "Strasbourg", "date_updated": "2022-01-02", "hotel_name": "Odalys City Strasbourg Green Marsh", "hotel_lat": 48.58668685, "hotel_lon": 7.74025977, "hotel_score": "7.8", "score_title": "Bien\u00a0 ", "score_expe": "2", "url": "https://www.booking.com/hotel/fr/appart-odalys-green-mars.fr.html"},
{"location": "Strasbourg", "date_updated": "2022-01-02", "hotel_name": "H\u00f4tel Gutenberg", "hotel_lat": 48.58106251, "hotel_lon": 7.74778068, "hotel_score": "8.7", "score_title": "Superbe ", "score_expe": "1", "url": "https://www.booking.com/hotel/fr/gutenberg.fr.html"},
{"location": "Strasbourg", "date_updated": "2022-01-02", "hotel_name": "H\u00f4tel Diana Dauphine", "hotel_lat": 48.576309, "hotel_lon": 7.75253356, "hotel_score": "8.3", "score_title": "Tr\u00e8s bien ", "score_expe": "1", "url": "https://www.booking.com/hotel/fr/hoteldianadauphine.fr.html"},
{"location": "Strasbourg", "date_updated": "2022-01-02", "hotel_name": "Hotel Les Haras", "hotel_lat": 48.57704319, "hotel_lon": 7.7425269, "hotel_score": "9.1", "score_title": "Fabuleux\u00a0 ", "score_expe": "1", "url": "https://www.booking.com/hotel/fr/ha-tel-les-haras.fr.html"},
{"location": "Strasbourg", "date_updated": "2022-01-02", "hotel_name": "Aloft Strasbourg Etoile", "hotel_lat": 48.57307425, "hotel_lon": 7.75633401, "hotel_score": "8.7", "score_title": "Superbe ", "score_expe": "496", "url": "https://www.booking.com/hotel/fr/aloft-strasbourg-etoile.fr.html"},
{"location": "Strasbourg", "date_updated": "2022-01-02", "hotel_name": "H\u00f4tel Tandem - Boutique H\u00f4tel", "hotel_lat": 48.58383633, "hotel_lon": 7.73494899, "hotel_score": "9.2", "score_title": "Fabuleux\u00a0 ", "score_expe": "861", "url": "https://www.booking.com/hotel/fr/ha-tel-nid-de-cigognes.fr.html"},
{"location": "Strasbourg", "date_updated": "2022-01-02", "hotel_name": "Le Jean-S\u00e9bastien Bach", "hotel_lat": 48.58816909, "hotel_lon": 7.77828276, "hotel_score": "8.4", "score_title": "Tr\u00e8s bien ", "score_expe": "1", "url": "https://www.booking.com/hotel/fr/libertelresidence.fr.html"},
{"location": "Strasbourg", "date_updated": "2022-01-02", "hotel_name": "Adagio Strasbourg Place Kleber", "hotel_lat": 48.58424797, "hotel_lon": 7.74583608, "hotel_score": "8.5", "score_title": "Tr\u00e8s bien ", "score_expe": "1", "url": "https://www.booking.com/hotel/fr/adagio-city-aparthotel-strasbourg-place-kleber.fr.html"},
{"location": "Strasbourg", "date_updated": "2022-01-02", "hotel_name": "Hannong Hotel & Wine Bar", "hotel_lat": 48.58279611, "hotel_lon": 7.74312839, "hotel_score": "8.8", "score_title": "Superbe ", "score_expe": "2", "url": "https://www.booking.com/hotel/fr/tihannong.fr.html"},
{"location": "Strasbourg", "date_updated": "2022-01-02", "hotel_name": "H\u00f4tel Athena Spa", "hotel_lat": 48.59173665, "hotel_lon": 7.71170497, "hotel_score": "8.6", "score_title": "Superbe ", "score_expe": "4", "url": "https://www.booking.com/hotel/fr/athena-spa.fr.html"},
{"location": "Strasbourg", "date_updated": "2022-01-02", "hotel_name": "Hotel Des Vosges Bw Premier Collection", "hotel_lat": 48.585686, "hotel_lon": 7.736483, "hotel_score": "8.8", "score_title": "Superbe ", "score_expe": "590", "url": "https://www.booking.com/hotel/fr/des-vosges.fr.html"},
{"location": "Strasbourg", "date_updated": "2022-01-02", "hotel_name": "Hotel Cour Du Corbeau Strasbourg - Mgallery", "hotel_lat": 48.57934881, "hotel_lon": 7.75155723, "hotel_score": "9.2", "score_title": "Fabuleux\u00a0 ", "score_expe": "1", "url": "https://www.booking.com/hotel/fr/cour-du-corbeau.fr.html"},
{"location": "Strasbourg", "date_updated": "2022-01-02", "hotel_name": "Best Western Plus Monopole M\u00e9tropole", "hotel_lat": 48.58501891, "hotel_lon": 7.73882546, "hotel_score": "8.7", "score_title": "Superbe ", "score_expe": "2", "url": "https://www.booking.com/hotel/fr/monopolemetropole.fr.html"},
{"location": "Strasbourg", "date_updated": "2022-01-02", "hotel_name": "Hilton Strasbourg", "hotel_lat": 48.59655677, "hotel_lon": 7.7552855, "hotel_score": "7.4", "score_title": "Bien\u00a0 ", "score_expe": "1", "url": "https://www.booking.com/hotel/fr/hilton-strasbourg.fr.html"},
{"location": "Strasbourg", "date_updated": "2022-01-02", "hotel_name": "Voco Strasbourg Centre - The Garden, An Ihg Hotel", "hotel_lat": 48.589685, "hotel_lon": 7.739508, "hotel_score": "8.6", "score_title": "Superbe ", "score_expe": "4", "url": "https://www.booking.com/hotel/fr/golden-tulip-strasbourg-centre-the-garden.fr.html"},
{"location": "Strasbourg", "date_updated": "2022-01-02", "hotel_name": "Citadines Eurometropole Strasbourg", "hotel_lat": 48.60427412, "hotel_lon": 7.70446112, "hotel_score": "8.5", "score_title": "Tr\u00e8s bien ", "score_expe": "760", "url": "https://www.booking.com/hotel/fr/citadines-eurometropole-strasbourg.fr.html"},
{"location": "Strasbourg", "date_updated": "2022-01-02", "hotel_name": "H\u00f4tel L\u00e9onor The Place To Live", "hotel_lat": 48.585942, "hotel_lon": 7.747235, "hotel_score": "8.8", "score_title": "Superbe ", "score_expe": "78", "url": "https://www.booking.com/hotel/fr/leonor-the-place-to-live.fr.html"},
{"location": "Strasbourg", "date_updated": "2022-01-02", "hotel_name": "Sofitel Strasbourg Grande Ile", "hotel_lat": 48.58518658, "hotel_lon": 7.7462773, "hotel_score": "8.3", "score_title": "Tr\u00e8s bien ", "score_expe": "713", "url": "https://www.booking.com/hotel/fr/sofitel-strasbourg.fr.html"},
{"location": "Strasbourg", "date_updated": "2022-01-02", "hotel_name": "Pavillon Regent Petite France", "hotel_lat": 48.58159136, "hotel_lon": 7.74154821, "hotel_score": "9.0", "score_title": "Fabuleux\u00a0 ", "score_expe": "472", "url": "https://www.booking.com/hotel/fr/pavillon-regent-petite-france.fr.html"},
{"location": "Strasbourg", "date_updated": "2022-01-02", "hotel_name": "Hotel & Spa Regent Petite France", "hotel_lat": 48.58080122, "hotel_lon": 7.74173364, "hotel_score": "8.9", "score_title": "Superbe ", "score_expe": "1", "url": "https://www.booking.com/hotel/fr/regentpetitefrance.fr.html"},
{"location": "Strasbourg", "date_updated": "2022-01-02", "hotel_name": "Maison Rouge Strasbourg Hotel & Spa, Autograph Collection", "hotel_lat": 48.58237114, "hotel_lon": 7.74588235, "hotel_score": "8.7", "score_title": "Superbe ", "score_expe": "185", "url": "https://www.booking.com/hotel/fr/maisonrouge.fr.html"},
{"location": "Lille", "date_updated": "2022-01-02", "hotel_name": "Campanile Lille Euralille", "hotel_lat": 50.6456983, "hotel_lon": 3.07210967, "hotel_score": "8.2", "score_title": "Tr\u00e8s bien ", "score_expe": "3", "url": "https://www.booking.com/hotel/fr/campanile-lille-euralille-xml.fr.html"},
{"location": "Lille", "date_updated": "2022-01-02", "hotel_name": "Hotel Art Deco Euralille", "hotel_lat": 50.64602156, "hotel_lon": 3.07587147, "hotel_score": "8.0", "score_title": "Tr\u00e8s bien ", "score_expe": "1", "url": "https://www.booking.com/hotel/fr/hotelsrtdecoromarinlille.fr.html"},
{"location": "Lille", "date_updated": "2022-01-02", "hotel_name": "Holiday Inn Express Lille Centre, An Ihg Hotel", "hotel_lat": 50.63075938, "hotel_lon": 3.05808842, "hotel_score": "8.1", "score_title": "Tr\u00e8s bien ", "score_expe": "2", "url": "https://www.booking.com/hotel/fr/expressbyholidayinnlille.fr.html"},
{"location": "Lille", "date_updated": "2022-01-02", "hotel_name": "Hotel Lille Europe", "hotel_lat": 50.63788756, "hotel_lon": 3.072685, "hotel_score": "8.1", "score_title": "Tr\u00e8s bien ", "score_expe": "4", "url": "https://www.booking.com/hotel/fr/lille-europe.fr.html"},
{"location": "Lille", "date_updated": "2022-01-02", "hotel_name": "Ibis Styles Lille Centre Gare Beffroi", "hotel_lat": 50.63238245, "hotel_lon": 3.06794286, "hotel_score": "7.8", "score_title": "Bien\u00a0 ", "score_expe": "2", "url": "https://www.booking.com/hotel/fr/ibis-styles-lille-centre-gare-beffroi.fr.html"},
{"location": "Lille", "date_updated": "2022-01-02", "hotel_name": "Moxy Lille City", "hotel_lat": 50.627831, "hotel_lon": 3.063592, "hotel_score": "8.7", "score_title": "Superbe ", "score_expe": "1", "url": "https://www.booking.com/hotel/fr/moxy-lille-city-center-france.fr.html"},
{"location": "Lille", "date_updated": "2022-01-02", "hotel_name": "Boa Hotel - Bw Signature Collection - Lille Centre Gares", "hotel_lat": 50.6373432, "hotel_lon": 3.06831166, "hotel_score": "8.8", "score_title": "Superbe ", "score_expe": "1", "url": "https://www.booking.com/hotel/fr/up.fr.html"},
{"location": "Lille", "date_updated": "2022-01-02", "hotel_name": "Best Western Premier Why Hotel", "hotel_lat": 50.63430829, "hotel_lon": 3.06161821, "hotel_score": "8.7", "score_title": "Superbe ", "score_expe": "1", "url": "https://www.booking.com/hotel/fr/why.fr.html"},
{"location": "Lille", "date_updated": "2022-01-02", "hotel_name": "Hotel L'Arbre Voyageur - Bw Premier Collection - Lille", "hotel_lat": 50.6397393, "hotel_lon": 3.0674281, "hotel_score": "9.0", "score_title": "Fabuleux\u00a0 ", "score_expe": "1", "url": "https://www.booking.com/hotel/fr/l-arbre-voyageur-bw-premier-collection-lille.fr.html"},
{"location": "Lille", "date_updated": "2022-01-02", "hotel_name": "Au 30", "hotel_lat": 50.63294839, "hotel_lon": 3.07494975, "hotel_score": "9.5", "score_title": "Exceptionnel ", "score_expe": "251", "url": "https://www.booking.com/hotel/fr/au-30.fr.html"},
{"location": "Lille", "date_updated": "2022-01-02", "hotel_name": "Novotel Lille Centre Grand Place", "hotel_lat": 50.63670187, "hotel_lon": 3.0588153, "hotel_score": "8.3", "score_title": "Tr\u00e8s bien ", "score_expe": "800", "url": "https://www.booking.com/hotel/fr/novotel-lille-centre-grand-place.fr.html"},
{"location": "Lille", "date_updated": "2022-01-02", "hotel_name": "Mercure Lille Centre Grand Place", "hotel_lat": 50.63804662, "hotel_lon": 3.0655168, "hotel_score": "8.0", "score_title": "Tr\u00e8s bien ", "score_expe": "710", "url": "https://www.booking.com/hotel/fr/mercure-lille-centre-opera.fr.html"},
{"location": "Lille", "date_updated": "2022-01-02", "hotel_name": "Aparthotel Adagio Lille Centre Grand Place", "hotel_lat": 50.635281, "hotel_lon": 3.060162, "hotel_score": "8.9", "score_title": "Superbe ", "score_expe": "1", "url": "https://www.booking.com/hotel/fr/aparthotel-adagio-lille-centre-grand-place.fr.html"},
{"location": "Lille", "date_updated": "2022-01-02", "hotel_name": "Novotel Lille Centre Gares", "hotel_lat": 50.63444099, "hotel_lon": 3.07335824, "hotel_score": "8.1", "score_title": "Tr\u00e8s bien ", "score_expe": "969", "url": "https://www.booking.com/hotel/fr/novotel-lille-centre-gares.fr.html"},
{"location": "Lille", "date_updated": "2022-01-02", "hotel_name": "Mercure Lille Centre Vieux Lille", "hotel_lat": 50.64173829, "hotel_lon": 3.06659639, "hotel_score": "7.9", "score_title": "Bien\u00a0 ", "score_expe": "700", "url": "https://www.booking.com/hotel/fr/mercure-llile-vieux.fr.html"},
{"location": "Lille", "date_updated": "2022-01-02", "hotel_name": "Novotel Suites Lille Europe", "hotel_lat": 50.63883337, "hotel_lon": 3.07668149, "hotel_score": "8.2", "score_title": "Tr\u00e8s bien ", "score_expe": "1", "url": "https://www.booking.com/hotel/fr/suitehotel-lille-europe.fr.html"},
{"location": "Lille", "date_updated": "2022-01-02", "hotel_name": "Alliance Lille - Couvent Des Minimes", "hotel_lat": 50.63786885, "hotel_lon": 3.0546277, "hotel_score": "7.8", "score_title": "Bien\u00a0 ", "score_expe": "1", "url": "https://www.booking.com/hotel/fr/alliance-lille-couvent-des-minimes.fr.html"},
{"location": "Lille", "date_updated": "2022-01-02", "hotel_name": "Crowne Plaza Euralille, An Ihg Hotel", "hotel_lat": 50.63993565, "hotel_lon": 3.07568908, "hotel_score": "8.1", "score_title": "Tr\u00e8s bien ", "score_expe": "786", "url": "https://www.booking.com/hotel/fr/crowneplazaeuralille.fr.html"},
{"location": "Lille", "date_updated": "2022-01-02", "hotel_name": "Okko Hotels Lille Centre", "hotel_lat": 50.634074, "hotel_lon": 3.064229, "hotel_score": "8.7", "score_title": "Superbe ", "score_expe": "426", "url": "https://www.booking.com/hotel/fr/okko-hotels-lille-centre.fr.html"},
{"location": "Lille", "date_updated": "2022-01-02", "hotel_name": "Hotel Carlton", "hotel_lat": 50.63671804, "hotel_lon": 3.06532234, "hotel_score": "8.2", "score_title": "Tr\u00e8s bien ", "score_expe": "1", "url": "https://www.booking.com/hotel/fr/carlton.fr.html"},
{"location": "Lille", "date_updated": "2022-01-02", "hotel_name": "Grand Hotel Bellevue - Grand Place", "hotel_lat": 50.63654707, "hotel_lon": 3.06234241, "hotel_score": "8.5", "score_title": "Tr\u00e8s bien ", "score_expe": "2", "url": "https://www.booking.com/hotel/fr/grandhotelbellevue.fr.html"},
{"location": "Lille", "date_updated": "2022-01-02", "hotel_name": "Clarance Hotel Lille", "hotel_lat": 50.6388119, "hotel_lon": 3.0569769, "hotel_score": "8.4", "score_title": "Tr\u00e8s bien ", "score_expe": "231", "url": "https://www.booking.com/hotel/fr/clarance-lille.fr.html"},
{"location": "Lille", "date_updated": "2022-01-02", "hotel_name": "H\u00f4tel Barri\u00e8re Lille", "hotel_lat": 50.63754054, "hotel_lon": 3.07692289, "hotel_score": "8.8", "score_title": "Superbe ", "score_expe": "1", "url": "https://www.booking.com/hotel/fr/barriere-lille.fr.html"},
{"location": "Lille", "date_updated": "2022-01-02", "hotel_name": "L'Hermitage Gantois, Autograph Collection", "hotel_lat": 50.63117791, "hotel_lon": 3.06831837, "hotel_score": "8.3", "score_title": "Tr\u00e8s bien ", "score_expe": "763", "url": "https://www.booking.com/hotel/fr/hermitagegantois.fr.html"},
{"location": "Amiens", "date_updated": "2022-01-02", "hotel_name": "Au Spatial", "hotel_lat": 49.89193885, "hotel_lon": 2.30575562, "hotel_score": "7.2", "score_title": "Bien\u00a0 ", "score_expe": "395", "url": "https://www.booking.com/hotel/fr/au-spatial.fr.html"},
{"location": "Amiens", "date_updated": "2022-01-02", "hotel_name": "Hotel Central Anzac", "hotel_lat": 49.89183258, "hotel_lon": 2.30599433, "hotel_score": "7.7", "score_title": "Bien\u00a0 ", "score_expe": "589", "url": "https://www.booking.com/hotel/fr/central-anzac.fr.html"},
{"location": "Amiens", "date_updated": "2022-01-02", "hotel_name": "Hotel Victor Hugo", "hotel_lat": 49.893251, "hotel_lon": 2.304545, "hotel_score": "7.8", "score_title": "Bien\u00a0 ", "score_expe": "516", "url": "https://www.booking.com/hotel/fr/victor-hugo-amiens.fr.html"},
{"location": "Amiens", "date_updated": "2022-01-02", "hotel_name": "H\u00f4tel De Normandie", "hotel_lat": 49.89148612, "hotel_lon": 2.3043555, "hotel_score": "6.8", "score_title": "Agr\u00e9able ", "score_expe": "740", "url": "https://www.booking.com/hotel/fr/de-normandie-amiens.fr.html"},
{"location": "Amiens", "date_updated": "2022-01-02", "hotel_name": "Premi\u00e8re Classe Amiens", "hotel_lat": 49.91856793, "hotel_lon": 2.29331338, "hotel_score": "6.4", "score_title": "Agr\u00e9able ", "score_expe": "1", "url": "https://www.booking.com/hotel/fr/premia-re-classe-amiens.fr.html"},
{"location": "Amiens", "date_updated": "2022-01-02", "hotel_name": "Ibis Budget Amiens Centre Gare", "hotel_lat": 49.891591, "hotel_lon": 2.313573, "hotel_score": "8.2", "score_title": "Tr\u00e8s bien ", "score_expe": "2", "url": "https://www.booking.com/hotel/fr/ibis-budget-amiens-centre-gare.fr.html"},
{"location": "Amiens", "date_updated": "2022-01-02", "hotel_name": "Appart Hotels Cathedral", "hotel_lat": 49.894622, "hotel_lon": 2.29822, "hotel_score": "8.2", "score_title": "Tr\u00e8s bien ", "score_expe": "5", "url": "https://www.booking.com/hotel/fr/appart-hotels-cathedral.fr.html"},
{"location": "Amiens", "date_updated": "2022-01-02", "hotel_name": "Grand Hotel De L'Univers", "hotel_lat": 49.89125423, "hotel_lon": 2.30433606, "hotel_score": "7.8", "score_title": "Bien\u00a0 ", "score_expe": "234", "url": "https://www.booking.com/hotel/fr/bwlunivers.fr.html"},
{"location": "Amiens", "date_updated": "2022-01-02", "hotel_name": "La Parenth\u00e8se Envout\u00e9e", "hotel_lat": 49.8883391, "hotel_lon": 2.31217084, "hotel_score": "8.9", "score_title": "Superbe ", "score_expe": "124", "url": "https://www.booking.com/hotel/fr/aux-caves.fr.html"},
{"location": "Amiens", "date_updated": "2022-01-02", "hotel_name": "Neoresid - R\u00e9sidence Saint Germain", "hotel_lat": 49.89681629, "hotel_lon": 2.29640922, "hotel_score": "8.5", "score_title": "Tr\u00e8s bien ", "score_expe": "477", "url": "https://www.booking.com/hotel/fr/residence-saint-germain.fr.html"},
{"location": "Amiens", "date_updated": "2022-01-02", "hotel_name": "The Nest", "hotel_lat": 49.889307, "hotel_lon": 2.294634, "hotel_score": "8.7", "score_title": "Superbe ", "score_expe": "129", "url": "https://www.booking.com/hotel/fr/the-nest-amiens.fr.html"},
{"location": "Amiens", "date_updated": "2022-01-02", "hotel_name": "Moxy Amiens", "hotel_lat": 49.891249, "hotel_lon": 2.30953, "hotel_score": "8.8", "score_title": "Superbe ", "score_expe": "41", "url": "https://www.booking.com/hotel/fr/campanile-amiens-centre-gare.fr.html"},
{"location": "Amiens", "date_updated": "2022-01-02", "hotel_name": "La Chambre D'Amiens", "hotel_lat": 49.89448371, "hotel_lon": 2.27680253, "hotel_score": "8.6", "score_title": "Superbe ", "score_expe": "941", "url": "https://www.booking.com/hotel/fr/la-chambre-d-39-amiens.fr.html"},
{"location": "Amiens", "date_updated": "2022-01-02", "hotel_name": "Le Saint Louis", "hotel_lat": 49.88977885, "hotel_lon": 2.30249941, "hotel_score": "8.1", "score_title": "Tr\u00e8s bien ", "score_expe": "641", "url": "https://www.booking.com/hotel/fr/le-saint-louis-amienq.fr.html"},
{"location": "Amiens", "date_updated": "2022-01-02", "hotel_name": "Appart'City Amiens Gare Cath\u00e9drale", "hotel_lat": 49.8943163, "hotel_lon": 2.3097612, "hotel_score": "7.4", "score_title": "Bien\u00a0 ", "score_expe": "1", "url": "https://www.booking.com/hotel/fr/appart-city-amiens.fr.html"},
{"location": "Amiens", "date_updated": "2022-01-02", "hotel_name": "Ibis Amiens Centre Cathedrale", "hotel_lat": 49.891999, "hotel_lon": 2.29197, "hotel_score": "7.4", "score_title": "Bien\u00a0 ", "score_expe": "1", "url": "https://www.booking.com/hotel/fr/ibis-amiens-centre-cathedrale.fr.html"},
{"location": "Amiens", "date_updated": "2022-01-02", "hotel_name": "Ibis Styles Amiens Centre", "hotel_lat": 49.891422, "hotel_lon": 2.304996, "hotel_score": "8.6", "score_title": "Superbe ", "score_expe": "877", "url": "https://www.booking.com/hotel/fr/ibis-styles-amiens-centre.fr.html"},
{"location": "Amiens", "date_updated": "2022-01-02", "hotel_name": "Odalys City Amiens Blamont", "hotel_lat": 49.88714842, "hotel_lon": 2.3116109, "hotel_score": "8.3", "score_title": "Tr\u00e8s bien ", "score_expe": "1", "url": "https://www.booking.com/hotel/fr/appart-39-odalys-blamont.fr.html"},
{"location": "Amiens", "date_updated": "2022-01-02", "hotel_name": "Hotel Le Prieur\u00e9 Et La R\u00e9sidence", "hotel_lat": 49.89444519, "hotel_lon": 2.30094239, "hotel_score": "8.4", "score_title": "Tr\u00e8s bien ", "score_expe": "1", "url": "https://www.booking.com/hotel/fr/le-prieure-amiens.fr.html"},
{"location": "Amiens", "date_updated": "2022-01-02", "hotel_name": "Comfort Hotel Amiens Nord", "hotel_lat": 49.92513403, "hotel_lon": 2.30457276, "hotel_score": "6.9", "score_title": "Agr\u00e9able ", "score_expe": "2", "url": "https://www.booking.com/hotel/fr/kyriad-amiens-nord-xml.fr.html"},
{"location": "Amiens", "date_updated": "2022-01-02", "hotel_name": "Holiday Inn Express Amiens, An Ihg Hotel", "hotel_lat": 49.8916762, "hotel_lon": 2.30775386, "hotel_score": "8.2", "score_title": "Tr\u00e8s bien ", "score_expe": "2", "url": "https://www.booking.com/hotel/fr/express-by-holiday-inn.fr.html"},
{"location": "Amiens", "date_updated": "2022-01-02", "hotel_name": "Mercure Amiens Cath\u00e9drale", "hotel_lat": 49.89571084, "hotel_lon": 2.29956239, "hotel_score": "8.3", "score_title": "Tr\u00e8s bien ", "score_expe": "1", "url": "https://www.booking.com/hotel/fr/mercure-amiens-cathdrale.fr.html"},
{"location": "Amiens", "date_updated": "2022-01-02", "hotel_name": "H\u00f4tel Marotte", "hotel_lat": 49.89105067, "hotel_lon": 2.30115093, "hotel_score": "8.2", "score_title": "Tr\u00e8s bien ", "score_expe": "250", "url": "https://www.booking.com/hotel/fr/ha-tel-marotte.fr.html"},
{"location": "Besancon", "date_updated": "2022-01-02", "hotel_name": "Ibis Budget Besan\u00e7on Centre Gare", "hotel_lat": 47.24684641, "hotel_lon": 6.02312028, "hotel_score": "7.6", "score_title": "Bien\u00a0 ", "score_expe": "2", "url": "https://www.booking.com/hotel/fr/ibis-budget-besanasson-centre-gare.fr.html"},
{"location": "Annecy", "date_updated": "2022-01-02", "hotel_name": "Ibis Annecy - Cran-Gevrier", "hotel_lat": 45.90760295, "hotel_lon": 6.10762596, "hotel_score": "6.9", "score_title": "Agr\u00e9able ", "score_expe": "471", "url": "https://www.booking.com/hotel/fr/hotel-balladins-annecy-superior.fr.html"},
{"location": "Dijon", "date_updated": "2022-01-02", "hotel_name": "Adonis Dijon Maison Internationale", "hotel_lat": 47.31329026, "hotel_lon": 5.07199162, "hotel_score": "8.0", "score_title": "Tr\u00e8s bien ", "score_expe": "736", "url": "https://www.booking.com/hotel/fr/maison-internationale.fr.html"},
{"location": "Grenoble", "date_updated": "2022-01-02", "hotel_name": "La Petite Maison", "hotel_lat": 45.17557, "hotel_lon": 5.713582, "hotel_score": "8.5", "score_title": "Tr\u00e8s bien ", "score_expe": "68", "url": "https://www.booking.com/hotel/fr/la-petite-maison-grenoble1.fr.html"},
{"location": "Lyon", "date_updated": "2022-01-02", "hotel_name": "H\u00f4tel Le Roosevelt", "hotel_lat": 45.76825734, "hotel_lon": 4.84828323, "hotel_score": "8.5", "score_title": "Tr\u00e8s bien ", "score_expe": "1", "url": "https://www.booking.com/hotel/fr/hotelrooseveltlyon.fr.html"},
{"location": "Gorges du Verdon", "date_updated": "2022-01-02", "hotel_name": "Logis De La Rose", "hotel_lat": 43.7585611, "hotel_lon": 5.88355422, "hotel_score": "7.5", "score_title": "Bien\u00a0 ", "score_expe": "393", "url": "https://www.booking.com/hotel/fr/logis-de-la-rose.fr.html"},
{"location": "Gorges du Verdon", "date_updated": "2022-01-02", "hotel_name": "Le Moulin Du Verdon", "hotel_lat": 43.7562008, "hotel_lon": 5.8902972, "hotel_score": "9.3", "score_title": "Fabuleux\u00a0 ", "score_expe": "117", "url": "https://www.booking.com/hotel/fr/residence-le-moulin.fr.html"},
{"location": "Gorges du Verdon", "date_updated": "2022-01-02", "hotel_name": "Les Colonnes", "hotel_lat": 43.758348, "hotel_lon": 5.8853808, "hotel_score": "7.3", "score_title": "Bien\u00a0 ", "score_expe": "190", "url": "https://www.booking.com/hotel/fr/grand-des-colonnes.fr.html"},
{"location": "Gorges du Verdon", "date_updated": "2022-01-02", "hotel_name": "H\u00f4tel Du Roc", "hotel_lat": 43.84653793, "hotel_lon": 6.51394978, "hotel_score": "7.7", "score_title": "Bien\u00a0 ", "score_expe": "518", "url": "https://www.booking.com/hotel/fr/ha-tel-du-roc.fr.html"},
{"location": "Gorges du Verdon", "date_updated": "2022-01-02", "hotel_name": "Hotel Du Levant", "hotel_lat": 43.84662575, "hotel_lon": 6.51355416, "hotel_score": "7.7", "score_title": "Bien\u00a0 ", "score_expe": "670", "url": "https://www.booking.com/hotel/fr/du-levant-castellane.fr.html"},
{"location": "Gorges du Verdon", "date_updated": "2022-01-02", "hotel_name": "Ma Petite Auberge", "hotel_lat": 43.84593903, "hotel_lon": 6.51284605, "hotel_score": "8.1", "score_title": "Tr\u00e8s bien ", "score_expe": "543", "url": "https://www.booking.com/hotel/fr/ma-petite-auberge.fr.html"},
{"location": "Gorges du Verdon", "date_updated": "2022-01-02", "hotel_name": "Hotel Les Cavalets", "hotel_lat": 43.7327862, "hotel_lon": 6.16152227, "hotel_score": "8.0", "score_title": "Tr\u00e8s bien ", "score_expe": "1", "url": "https://www.booking.com/hotel/fr/les-cavalets.fr.html"},
{"location": "Gorges du Verdon", "date_updated": "2022-01-02", "hotel_name": "Logis Grand Hotel Bain", "hotel_lat": 43.70967197, "hotel_lon": 6.50855184, "hotel_score": "7.8", "score_title": "Bien\u00a0 ", "score_expe": "350", "url": "https://www.booking.com/hotel/fr/logis-grand-bain.fr.html"},
{"location": "Gorges du Verdon", "date_updated": "2022-01-02", "hotel_name": "H\u00f4tel Particulier Des Lumi\u00e8res", "hotel_lat": 43.84704036, "hotel_lon": 6.22068909, "hotel_score": "8.3", "score_title": "Tr\u00e8s bien ", "score_expe": "285", "url": "https://www.booking.com/hotel/fr/particulier-des-lumieres.fr.html"},
{"location": "Gorges du Verdon", "date_updated": "2022-01-02", "hotel_name": "H\u00f4tel Des Alpes", "hotel_lat": 43.75869671, "hotel_lon": 5.88205487, "hotel_score": "8.7", "score_title": "Superbe ", "score_expe": "330", "url": "https://www.booking.com/hotel/fr/des-alpes-gra-c-oux-les-bains.fr.html"},
{"location": "Gorges du Verdon", "date_updated": "2022-01-02", "hotel_name": "Hotel Les Restanques De Moustiers", "hotel_lat": 43.83962281, "hotel_lon": 6.22201681, "hotel_score": "9.0", "score_title": "Fabuleux\u00a0 ", "score_expe": "422", "url": "https://www.booking.com/hotel/fr/les-restanques-de-moustiers.fr.html"},
{"location": "Gorges du Verdon", "date_updated": "2022-01-02", "hotel_name": "H\u00f4tel Le Colombier", "hotel_lat": 43.8398124, "hotel_lon": 6.22183442, "hotel_score": "9.3", "score_title": "Fabuleux\u00a0 ", "score_expe": "420", "url": "https://www.booking.com/hotel/fr/le-colombier-moustiers-sainte-marie.fr.html"},
{"location": "Gorges du Verdon", "date_updated": "2022-01-02", "hotel_name": "Le Verdon", "hotel_lat": 43.75820852, "hotel_lon": 5.8968915, "hotel_score": "8.0", "score_title": "Tr\u00e8s bien ", "score_expe": "876", "url": "https://www.booking.com/hotel/fr/le-verdon.fr.html"},
{"location": "Gorges du Verdon", "date_updated": "2022-01-02", "hotel_name": "Nouvel H\u00f4tel Du Commerce", "hotel_lat": 43.84644198, "hotel_lon": 6.51247859, "hotel_score": "8.7", "score_title": "Superbe ", "score_expe": "621", "url": "https://www.booking.com/hotel/fr/nouvel-du-commerce-castellane.fr.html"},
{"location": "Gorges du Verdon", "date_updated": "2022-01-02", "hotel_name": "H\u00f4tel La Bonne Auberge", "hotel_lat": 43.84343777, "hotel_lon": 6.22167349, "hotel_score": "8.5", "score_title": "Tr\u00e8s bien ", "score_expe": "539", "url": "https://www.booking.com/hotel/fr/ha-tel-la-bonne-etape.fr.html"},
{"location": "Gorges du Verdon", "date_updated": "2022-01-02", "hotel_name": "Le Provence", "hotel_lat": 43.77898012, "hotel_lon": 6.34123349, "hotel_score": "7.9", "score_title": "Bien\u00a0 ", "score_expe": "382", "url": "https://www.booking.com/hotel/fr/le-provence-la-palud1.fr.html"},
{"location": "Gorges du Verdon", "date_updated": "2022-01-02", "hotel_name": "Hotel Le Moulin Du Ch\u00e2teau", "hotel_lat": 43.7257168, "hotel_lon": 6.06757924, "hotel_score": "9.1", "score_title": "Fabuleux\u00a0 ", "score_expe": "213", "url": "https://www.booking.com/hotel/fr/le-moulin-du-chateau.fr.html"},
{"location": "Gorges du Verdon", "date_updated": "2022-01-02", "hotel_name": "Le Relais Notre Dame", "hotel_lat": 43.69908887, "hotel_lon": 6.03723943, "hotel_score": "8.4", "score_title": "Tr\u00e8s bien ", "score_expe": "374", "url": "https://www.booking.com/hotel/fr/relais-notre-dame.fr.html"},
{"location": "Gorges du Verdon", "date_updated": "2022-01-02", "hotel_name": "H\u00f4tel Les Deux Lions", "hotel_lat": 43.81530926, "hotel_lon": 6.09147906, "hotel_score": "7.9", "score_title": "Bien\u00a0 ", "score_expe": "603", "url": "https://www.booking.com/hotel/fr/ha-tel-les-deux-lions.fr.html"},
{"location": "Gorges du Verdon", "date_updated": "2022-01-02", "hotel_name": "La Bastide De Moustiers - Les Collectionneurs", "hotel_lat": 43.83879091, "hotel_lon": 6.21759117, "hotel_score": "9.1", "score_title": "Fabuleux\u00a0 ", "score_expe": "114", "url": "https://www.booking.com/hotel/fr/la-bastide-de-moustiers.fr.html"},
{"location": "Gorges du Verdon", "date_updated": "2022-01-02", "hotel_name": "Le Mas De La Cr\u00e9maill\u00e8re", "hotel_lat": 43.75767577, "hotel_lon": 5.89748293, "hotel_score": "7.8", "score_title": "Bien\u00a0 ", "score_expe": "295", "url": "https://www.booking.com/hotel/fr/le-mas-de-la-cra-c-mailla-re.fr.html"},
{"location": "Gorges du Verdon", "date_updated": "2022-01-02", "hotel_name": "R\u00e9sidence Odalys La Licorne De Haute Provence", "hotel_lat": 43.761854, "hotel_lon": 5.888967, "hotel_score": "7.2", "score_title": "Bien\u00a0 ", "score_expe": "514", "url": "https://www.booking.com/hotel/fr/la-licorne-de-haute-provence.fr.html"},
{"location": "Gorges du Verdon", "date_updated": "2022-01-02", "hotel_name": "Hotel & Spa Des Gorges Du Verdon", "hotel_lat": 43.77533343, "hotel_lon": 6.34465277, "hotel_score": "8.2", "score_title": "Tr\u00e8s bien ", "score_expe": "249", "url": "https://www.booking.com/hotel/fr/hotel-spa-des-gorges-du-verdon.fr.html"},
{"location": "Gorges du Verdon", "date_updated": "2022-01-02", "hotel_name": "Villa Borghese, The Originals Relais", "hotel_lat": 43.75813877, "hotel_lon": 5.89472026, "hotel_score": "7.7", "score_title": "Bien\u00a0 ", "score_expe": "408", "url": "https://www.booking.com/hotel/fr/villa-borghese.fr.html"},
{"location": "Gorges du Verdon", "date_updated": "2022-01-02", "hotel_name": "La Bastide Du Calalou; Bw Signature Collection", "hotel_lat": 43.65436638, "hotel_lon": 6.16950452, "hotel_score": "8.4", "score_title": "Tr\u00e8s bien ", "score_expe": "586", "url": "https://www.booking.com/hotel/fr/bastide-du-calalou.fr.html"},
{"location": "Lyon", "date_updated": "2022-01-02", "hotel_name": "H\u00f4tel Charlemagne", "hotel_lat": 45.74602253, "hotel_lon": 4.8238939, "hotel_score": "7.7", "score_title": "Bien\u00a0 ", "score_expe": "2", "url": "https://www.booking.com/hotel/fr/hotelbestwesterncharlemagne.fr.html"},
{"location": "Lyon", "date_updated": "2022-01-02", "hotel_name": "Mercure Lyon Centre Plaza R\u00e9publique", "hotel_lat": 45.7606886, "hotel_lon": 4.8368369, "hotel_score": "8.0", "score_title": "Tr\u00e8s bien ", "score_expe": "1", "url": "https://www.booking.com/hotel/fr/lyon-plaza-republique.fr.html"},
{"location": "Lyon", "date_updated": "2022-01-02", "hotel_name": "Mercure Lyon Centre Beaux-Arts", "hotel_lat": 45.76095151, "hotel_lon": 4.83413994, "hotel_score": "8.5", "score_title": "Tr\u00e8s bien ", "score_expe": "2", "url": "https://www.booking.com/hotel/fr/lyon-beaux-arts.fr.html"},
{"location": "Lyon", "date_updated": "2022-01-02", "hotel_name": "Best Western Hotel Du Pont Wilson", "hotel_lat": 45.75843134, "hotel_lon": 4.84147914, "hotel_score": "8.3", "score_title": "Tr\u00e8s bien ", "score_expe": "2", "url": "https://www.booking.com/hotel/fr/lyon-wilson.fr.html"},
{"location": "Lyon", "date_updated": "2022-01-02", "hotel_name": "Okko Hotels Lyon Pont Lafayette", "hotel_lat": 45.764536, "hotel_lon": 4.84180837, "hotel_score": "8.7", "score_title": "Superbe ", "score_expe": "1", "url": "https://www.booking.com/hotel/fr/okko-hotels-lyon-pont-lafayette.fr.html"},
{"location": "Lyon", "date_updated": "2022-01-02", "hotel_name": "Mercure Lyon Centre Ch\u00e2teau Perrache", "hotel_lat": 45.74922688, "hotel_lon": 4.82522696, "hotel_score": "8.0", "score_title": "Tr\u00e8s bien ", "score_expe": "1", "url": "https://www.booking.com/hotel/fr/grand-mercure-chateau-perrache.fr.html"},
{"location": "Lyon", "date_updated": "2022-01-02", "hotel_name": "Crowne Plaza Lyon Parc De La T\u00eate D'Or", "hotel_lat": 45.78555306, "hotel_lon": 4.85696018, "hotel_score": "8.2", "score_title": "Tr\u00e8s bien ", "score_expe": "1", "url": "https://www.booking.com/hotel/fr/de-la-cite-concorde-lyon.fr.html"},
{"location": "Lyon", "date_updated": "2022-01-02", "hotel_name": "Warwick Reine Astrid - Lyon", "hotel_lat": 45.77493176, "hotel_lon": 4.84766364, "hotel_score": "8.3", "score_title": "Tr\u00e8s bien ", "score_expe": "2", "url": "https://www.booking.com/hotel/fr/la-reine-astrid.fr.html"},
{"location": "Lyon", "date_updated": "2022-01-02", "hotel_name": "Lagrange Aparthotel Lyon Lumi\u00e8re", "hotel_lat": 45.74645865, "hotel_lon": 4.86893088, "hotel_score": "8.2", "score_title": "Tr\u00e8s bien ", "score_expe": "4", "url": "https://www.booking.com/hotel/fr/lagrange-city-apartha-tel-lyon-lumia-re.fr.html"},
{"location": "Lyon", "date_updated": "2022-01-02", "hotel_name": "H\u00f4tel Lyon M\u00e9tropole", "hotel_lat": 45.7887196, "hotel_lon": 4.81984109, "hotel_score": "8.3", "score_title": "Tr\u00e8s bien ", "score_expe": "2", "url": "https://www.booking.com/hotel/fr/lyon-metropole.fr.html"},
{"location": "Lyon", "date_updated": "2022-01-02", "hotel_name": "Novotel Lyon Gerland Mus\u00e9e Des Confluences", "hotel_lat": 45.733195, "hotel_lon": 4.823688, "hotel_score": "7.7", "score_title": "Bien\u00a0 ", "score_expe": "2", "url": "https://www.booking.com/hotel/fr/novotel-lyon-gerland.fr.html"},
{"location": "Lyon", "date_updated": "2022-01-02", "hotel_name": "Mercure Lyon Centre Saxe Lafayette", "hotel_lat": 45.76175146, "hotel_lon": 4.84594971, "hotel_score": "8.3", "score_title": "Tr\u00e8s bien ", "score_expe": "1", "url": "https://www.booking.com/hotel/fr/mercure-grand-saxe-lafayette.fr.html"},
{"location": "Lyon", "date_updated": "2022-01-02", "hotel_name": "Hotel Carlton Lyon - Mgallery Hotel Collection", "hotel_lat": 45.76098753, "hotel_lon": 4.83672559, "hotel_score": "8.7", "score_title": "Superbe ", "score_expe": "1", "url": "https://www.booking.com/hotel/fr/carlton-lyon.fr.html"},
{"location": "Lyon", "date_updated": "2022-01-02", "hotel_name": "Lyon Marriott Hotel Cit\u00e9 Internationale", "hotel_lat": 45.78492085, "hotel_lon": 4.85289931, "hotel_score": "8.3", "score_title": "Tr\u00e8s bien ", "score_expe": "1", "url": "https://www.booking.com/hotel/fr/marriott-lyon.fr.html"},
{"location": "Lyon", "date_updated": "2022-01-02", "hotel_name": "Fourvi\u00e8re H\u00f4tel", "hotel_lat": 45.75964111, "hotel_lon": 4.81612913, "hotel_score": "8.6", "score_title": "Superbe ", "score_expe": "2", "url": "https://www.booking.com/hotel/fr/fourviere.fr.html"},
{"location": "Lyon", "date_updated": "2022-01-02", "hotel_name": "Novotel Lyon Confluence", "hotel_lat": 45.74155672, "hotel_lon": 4.81529206, "hotel_score": "8.2", "score_title": "Tr\u00e8s bien ", "score_expe": "2", "url": "https://www.booking.com/hotel/fr/novotel-lyon-confluence.fr.html"},
{"location": "Lyon", "date_updated": "2022-01-02", "hotel_name": "Radisson Blu Hotel, Lyon", "hotel_lat": 45.76106379, "hotel_lon": 4.85515237, "hotel_score": "8.1", "score_title": "Tr\u00e8s bien ", "score_expe": "7", "url": "https://www.booking.com/hotel/fr/radisson-blu-hotel-lyon.fr.html"},
{"location": "Lyon", "date_updated": "2022-01-02", "hotel_name": "Hotel Le Royal Lyon - Mgallery", "hotel_lat": 45.75643412, "hotel_lon": 4.83306706, "hotel_score": "8.6", "score_title": "Superbe ", "score_expe": "1", "url": "https://www.booking.com/hotel/fr/le-royal-lyon.fr.html"},
{"location": "Lyon", "date_updated": "2022-01-02", "hotel_name": "Villa Ma\u00efa", "hotel_lat": 45.75921714, "hotel_lon": 4.82313535, "hotel_score": "9.2", "score_title": "Fabuleux\u00a0 ", "score_expe": "253", "url": "https://www.booking.com/hotel/fr/villa-maia-lyon.fr.html"},
{"location": "Lyon", "date_updated": "2022-01-02", "hotel_name": "Boscolo Lyon Hotel & Spa", "hotel_lat": 45.760833, "hotel_lon": 4.837589, "hotel_score": "8.6", "score_title": "Superbe ", "score_expe": "1", "url": "https://www.booking.com/hotel/fr/boscolo-exedra-lyon.fr.html"},
{"location": "Lyon", "date_updated": "2022-01-02", "hotel_name": "Sofitel Lyon Bellecour", "hotel_lat": 45.75438677, "hotel_lon": 4.83399779, "hotel_score": "7.8", "score_title": "Bien\u00a0 ", "score_expe": "1", "url": "https://www.booking.com/hotel/fr/sofitel-lyon.fr.html"},
{"location": "Lyon", "date_updated": "2022-01-02", "hotel_name": "Villa Florentine", "hotel_lat": 45.76314439, "hotel_lon": 4.825808, "hotel_score": "8.8", "score_title": "Superbe ", "score_expe": "537", "url": "https://www.booking.com/hotel/fr/villaflorentine.fr.html"},
{"location": "Lyon", "date_updated": "2022-01-02", "hotel_name": "Cour Des Loges Lyon, A Member Of Radisson Individuals", "hotel_lat": 45.76328491, "hotel_lon": 4.82741565, "hotel_score": "8.9", "score_title": "Superbe ", "score_expe": "859", "url": "https://www.booking.com/hotel/fr/courdesloges.fr.html"},
{"location": "Lyon", "date_updated": "2022-01-02", "hotel_name": "Intercontinental Lyon - Hotel Dieu, An Ihg Hotel", "hotel_lat": 45.758649, "hotel_lon": 4.836915, "hotel_score": "9.1", "score_title": "Fabuleux\u00a0 ", "score_expe": "1", "url": "https://www.booking.com/hotel/fr/intercontinental-hotels-lyon-dieu.fr.html"},
{"location": "Grenoble", "date_updated": "2022-01-02", "hotel_name": "H\u00f4tel Restaurant D'Application Lesdiguieres - Ecole H\u00f4teli\u00e8re -", "hotel_lat": 45.167883, "hotel_lon": 5.71176, "hotel_score": "8.5", "score_title": "Tr\u00e8s bien ", "score_expe": "34", "url": "https://www.booking.com/hotel/fr/lesdiguieres.fr.html"},
{"location": "Grenoble", "date_updated": "2022-01-02", "hotel_name": "Ibis Styles Grenoble Centre Gare", "hotel_lat": 45.19089537, "hotel_lon": 5.71967997, "hotel_score": "8.1", "score_title": "Tr\u00e8s bien ", "score_expe": "452", "url": "https://www.booking.com/hotel/fr/all-seasons-grenoble-centre-gare-grenoble.fr.html"},
{"location": "Grenoble", "date_updated": "2022-01-02", "hotel_name": "Ibis Grenoble Gare", "hotel_lat": 45.192898, "hotel_lon": 5.71739092, "hotel_score": "7.7", "score_title": "Bien\u00a0 ", "score_expe": "719", "url": "https://www.booking.com/hotel/fr/ibis-grenoble-gare.fr.html"},
{"location": "Grenoble", "date_updated": "2022-01-02", "hotel_name": "Ibis Grenoble Centre Bastille", "hotel_lat": 45.19052518, "hotel_lon": 5.72641228, "hotel_score": "7.4", "score_title": "Bien\u00a0 ", "score_expe": "1", "url": "https://www.booking.com/hotel/fr/ibis-grenoble-centre.fr.html"},
{"location": "Grenoble", "date_updated": "2022-01-02", "hotel_name": "Le H\u00fcb - Grenoble", "hotel_lat": 45.192873, "hotel_lon": 5.711917, "hotel_score": "8.4", "score_title": "Tr\u00e8s bien ", "score_expe": "1", "url": "https://www.booking.com/hotel/fr/le-hub-grenoble.fr.html"},
{"location": "Grenoble", "date_updated": "2022-01-02", "hotel_name": "H\u00f4tel Terminus", "hotel_lat": 45.19107826, "hotel_lon": 5.71559832, "hotel_score": "7.5", "score_title": "Bien\u00a0 ", "score_expe": "241", "url": "https://www.booking.com/hotel/fr/hotelterminus.fr.html"},
{"location": "Grenoble", "date_updated": "2022-01-02", "hotel_name": "1924 H\u00f4tel", "hotel_lat": 45.18928483, "hotel_lon": 5.71861982, "hotel_score": "8.5", "score_title": "Tr\u00e8s bien ", "score_expe": "340", "url": "https://www.booking.com/hotel/fr/royal-grenoble.fr.html"},
{"location": "Grenoble", "date_updated": "2022-01-02", "hotel_name": "Residhotel Le Central'Gare", "hotel_lat": 45.19085898, "hotel_lon": 5.71572438, "hotel_score": "7.8", "score_title": "Bien\u00a0 ", "score_expe": "1", "url": "https://www.booking.com/hotel/fr/residhotel-le-central-gare.fr.html"},
{"location": "Grenoble", "date_updated": "2022-01-02", "hotel_name": "The Originals Residence Kosy Appart'H\u00f4tels - Les C\u00e8dres", "hotel_lat": 45.17894378, "hotel_lon": 5.73206306, "hotel_score": "7.7", "score_title": "Bien\u00a0 ", "score_expe": "474", "url": "https://www.booking.com/hotel/fr/adagio-city-aparthotel-grenoble-berthelot.fr.html"},
{"location": "Grenoble", "date_updated": "2022-01-02", "hotel_name": "R\u00e9sidence Le Patricia", "hotel_lat": 45.1920997, "hotel_lon": 5.72396229, "hotel_score": "8.1", "score_title": "Tr\u00e8s bien ", "score_expe": "757", "url": "https://www.booking.com/hotel/fr/ra-c-sidence-le-patricia.fr.html"},
{"location": "Grenoble", "date_updated": "2022-01-02", "hotel_name": "H\u00f4tel De L'Europe Grenoble Hyper-Centre", "hotel_lat": 45.19035711, "hotel_lon": 5.72733097, "hotel_score": "8.5", "score_title": "Tr\u00e8s bien ", "score_expe": "448", "url": "https://www.booking.com/hotel/fr/de-l-europe-grenoble.fr.html"},
{"location": "Grenoble", "date_updated": "2022-01-02", "hotel_name": "Kyriad Grenoble Centre", "hotel_lat": 45.16819994, "hotel_lon": 5.71199477, "hotel_score": "7.8", "score_title": "Bien\u00a0 ", "score_expe": "1", "url": "https://www.booking.com/hotel/fr/qualityhotelgrenoble.fr.html"},